이름,본인과의관계,재산구분,재산의 종류,소재지 면적 등 권리의 명세,현재가액,건물주소,건물면적,Latitude,Longitude
박태형,배우자,건물,공장,"경기도 포천시 어룡동 건물 1,901.16㎡ 중 950.58㎡",64649.0,경기도 포천시 어룡동,"건물 1,901.16㎡ 중 950.58㎡",37.8863367059279,127.18017028937
백종헌,본인,건물,공장,"경상남도 양산시 산막동 대지 10,380.40㎡ 건물1,520.94㎡ (건물 180.00㎡ 증가)",6498561.0,경상남도 양산시 산막동,"대지 10,380.40㎡ 건물1,520.94㎡ (건물 180.00㎡ 증가)",35.3736432564714,129.057929327709
강기윤,배우자,건물,공장,"경상남도 창원시 의창구 팔용동 대지 2,532.70㎡ 건물1,979.08㎡",2471737.0,경상남도 창원시 의창구 팔용동,"대지 2,532.70㎡ 건물1,979.08㎡",35.2541369944155,128.612147059153
이인선,본인,건물,공장,"대구광역시 달서구 장기동 대지 1,011.00㎡ 중 252.75㎡건물 609.76㎡ 중 152.44㎡",458862.0,대구광역시 달서구 장기동,"대지 1,011.00㎡ 중 252.75㎡건물 609.76㎡ 중 152.44㎡",35.8433493267253,128.530035888982
이인선,배우자,건물,공장,"대구광역시 달서구 장기동 대지 1,011.00㎡ 중 252.75㎡건물 609.76㎡ 중 152.44㎡",458862.0,대구광역시 달서구 장기동,"대지 1,011.00㎡ 중 252.75㎡건물 609.76㎡ 중 152.44㎡",35.8433493267253,128.530035888982
백종헌,본인,건물,공장,"부산광역시 금정구 회동동 (주)백산금속 대지 1,017.80㎡건물 815.78㎡",1662275.0,부산광역시 금정구 회동동,"(주)백산금속 대지 1,017.80㎡건물 815.78㎡",35.2334758158297,129.123839171603
백종헌,본인,건물,공장,부산광역시 금정구 회동동 (주)백산금속 대지 518.40㎡건물 893.97㎡,953972.0,부산광역시 금정구 회동동,(주)백산금속 대지 518.40㎡건물 893.97㎡,35.2334758158297,129.123839171603
소병철,배우자,건물,공장,"전라남도 여수시 덕충동 대지 2,093.00㎡ 중 523.20㎡ 건물430.70㎡ 중 107.67㎡",246558.0,전라남도 여수시 덕충동,"대지 2,093.00㎡ 중 523.20㎡ 건물430.70㎡ 중 107.67㎡",34.7576132560783,127.741274487447
안병길,배우자,건물,교육연구 및복지시설,부산광역시 해운대구광역시 좌동 상록아파트 대지753.40㎡ 건물 804.67㎡,2023828.0,부산광역시 해운대구광역시 좌동,상록아파트 대지753.40㎡ 건물 804.67㎡,,
안병길,배우자,건물,교육연구 및복지시설,부산광역시 해운대구광역시 좌동 해운대대우1차아파트대지 853.91㎡ 건물 633.74㎡,2311822.0,부산광역시 해운대구광역시 좌동,해운대대우1차아파트대지 853.91㎡ 건물 633.74㎡,,
이철규,본인,건물,근린생활시설,강원도 동해시 북평동 대지 588.00㎡ 건물 44.10㎡,390917.0,강원도 동해시 북평동,대지 588.00㎡ 건물 44.10㎡,37.4838308233309,129.125223115384
고재학,배우자,건물,근린생활시설,경기도 고양시 일산서구 대화동 우리프라자 대지 201.39㎡건물 69.14㎡,600000.0,경기도 고양시 일산서구 대화동,우리프라자 대지 201.39㎡건물 69.14㎡,37.6829848694343,126.755141409924
송병철,배우자,건물,근린생활시설,"경기도 고양시 일산서구 덕이동 건물 60.00㎡ 중 16.36㎡ (건물 총면적 60.00㎡ 증가, 지분면적 16.36㎡ 증가)",6316.0,경기도 고양시 일산서구 덕이동,"건물 60.00㎡ 중 16.36㎡ (건물 총면적 60.00㎡ 증가, 지분면적 16.36㎡ 증가)",37.6957282376739,126.738350133303
송병철,배우자,건물,근린생활시설,"경기도 고양시 일산서구 덕이동 건물 74.45㎡ 중 20.30㎡ (건물 총면적 74.45㎡ 증가, 지분면적 20.30㎡ 증가)",6862.0,경기도 고양시 일산서구 덕이동,"건물 74.45㎡ 중 20.30㎡ (건물 총면적 74.45㎡ 증가, 지분면적 20.30㎡ 증가)",37.6957282376739,126.738350133303
이학영,배우자,건물,근린생활시설,경기도 군포시 금정동 명산빌딩 대지 131.04㎡ 중 27.69㎡건물 769.00㎡ 중 131.04㎡,245000.0,경기도 군포시 금정동,명산빌딩 대지 131.04㎡ 중 27.69㎡건물 769.00㎡ 중 131.04㎡,37.3653967180722,126.939356947385
서영석,본인,건물,근린생활시설,경기도 부천시 고강동 건물 351.00㎡ 중 175.50㎡,277817.0,경기도 부천시 고강동,건물 351.00㎡ 중 175.50㎡,37.5295501272999,126.812115826118
김철민,본인,건물,근린생활시설,경기도 시흥시 정왕동 대지 539.30㎡ 건물 689.13㎡,1636159.0,경기도 시흥시 정왕동,대지 539.30㎡ 건물 689.13㎡,37.3472707997814,126.722129562609
김철민,본인,건물,근린생활시설,"경기도 시흥시 정왕동 한일프라자 대지 1,228.90㎡ 중13.71㎡ 건물 34.30㎡",65490.0,경기도 시흥시 정왕동,"한일프라자 대지 1,228.90㎡ 중13.71㎡ 건물 34.30㎡",37.3472707997814,126.722129562609
김철민,본인,건물,근린생활시설,경기도 안산시 상록구 본오동 상림프라자 대지 849.60㎡중 7.38㎡ 건물 41.81㎡ 중 20.90㎡,54074.0,경기도 안산시 상록구 본오동,상림프라자 대지 849.60㎡중 7.38㎡ 건물 41.81㎡ 중 20.90㎡,37.2891939602882,126.864590815243
김철민,본인,건물,근린생활시설,경기도 안산시 상록구 본오동 상림프라자 대지 849.60㎡중 8.98㎡ 건물 50.85㎡ 중 25.43㎡,65788.0,경기도 안산시 상록구 본오동,상림프라자 대지 849.60㎡중 8.98㎡ 건물 50.85㎡ 중 25.43㎡,37.2891939602882,126.864590815243
김학용,장남,건물,근린생활시설,경기도 안성시 공도읍 승두리 대지 99.80㎡ 건물 148.90㎡,133005.0,경기도 안성시 공도읍 승두리,대지 99.80㎡ 건물 148.90㎡,36.987172511864,127.161605532582
최강욱,본인,건물,근린생활시설,"경기도 용인시 처인구 양지면 평창리 발트하우스 대지 1,283.00㎡ 중 23.30㎡ 건물 509.20㎡ 중 6.62㎡",14348.0,경기도 용인시 처인구 양지면 평창리,"발트하우스 대지 1,283.00㎡ 중 23.30㎡ 건물 509.20㎡ 중 6.62㎡",37.226227465961,127.326589849902
최강욱,본인,건물,근린생활시설,경기도 용인시 처인구 양지면 평창리 발트하우스 대지479.00㎡ 중 8.40㎡ 건물 68.14㎡ 중 0.92㎡,4429.0,경기도 용인시 처인구 양지면 평창리,발트하우스 대지479.00㎡ 중 8.40㎡ 건물 68.14㎡ 중 0.92㎡,37.226227465961,127.326589849902
조기열,배우자,건물,근린생활시설,경기도 의왕시 내손동 의왕상록아파트 건물 86.14㎡ (건물86.14㎡ 증가),370000.0,경기도 의왕시 내손동,의왕상록아파트 건물 86.14㎡ (건물86.14㎡ 증가),37.3782619969627,126.975693472476
최춘식,본인,건물,근린생활시설,경기도 포천시 관인면 탄동리 대지 450.00㎡ 건물 89.60㎡,87368.0,경기도 포천시 관인면 탄동,리 대지 450.00㎡ 건물 89.60㎡,38.1646778462393,127.264586049915
김도읍,본인,건물,근린생활시설,"부산광역시 강서구 강동동 대지 1,514.00㎡ 건물 538.00㎡",2396745.0,부산광역시 강서구 강동동,"대지 1,514.00㎡ 건물 538.00㎡",35.2145168459059,128.935271405931
김도읍,본인,건물,근린생활시설,부산광역시 강서구 강동동 대지 557.00㎡ 건물 284.43㎡,1186727.0,부산광역시 강서구 강동동,대지 557.00㎡ 건물 284.43㎡,35.2145168459059,128.935271405931
백종헌,본인,건물,근린생활시설,"부산광역시 금정구 서동 대지 1,039.70㎡ 건물 1,104.70㎡",3982785.0,부산광역시 금정구 서동,"대지 1,039.70㎡ 건물 1,104.70㎡",35.2184737614791,129.103607522202
서병수,본인,건물,근린생활시설,부산광역시 기장군 일광면 원리 건물 0.00㎡ (건물 0.00㎡감소),0.0,부산광역시 기장군 일광면 원리,건물 0.00㎡ (건물 0.00㎡감소),35.3077816557148,129.229426685224
서병수,본인,건물,근린생활시설,부산광역시 기장군 일광읍 원리 대지 771.00㎡ 건물90.35㎡,411554.0,부산광역시 기장군 일광읍 원리,대지 771.00㎡ 건물90.35㎡,35.3077816557148,129.229426685224
정점식,배우자,건물,근린생활시설,"부산광역시 수영구 수영동 영화빌딩 대지 816.20㎡ 건물3,842.74㎡",4441981.0,부산광역시 수영구 수영동,"영화빌딩 대지 816.20㎡ 건물3,842.74㎡",35.1705527261101,129.116107846731
노우진,본인,건물,근린생활시설,부산광역시 중구 영주동 대지 40.00㎡ 건물 24.13㎡,75400.0,부산광역시 중구 영주동,대지 40.00㎡ 건물 24.13㎡,35.1118639237961,129.03199111519
김미애,본인,건물,근린생활시설,부산광역시 해운대구 재송동 대지 253.70㎡ 건물 735.47㎡,1074534.0,부산광역시 해운대구 재송동,대지 253.70㎡ 건물 735.47㎡,35.1855603344596,129.127939014337
안병길,본인,건물,근린생활시설,"부산광역시 해운대구광역시 중동 대지 600.00㎡ 건물1,436.64㎡",3800000.0,부산광역시 해운대구광역시 중동,"대지 600.00㎡ 건물1,436.64㎡",,
최종윤,본인,건물,근린생활시설,서울특별시 강동구 명일동 대지 62.75㎡ 건물 57.12㎡,283065.0,서울특별시 강동구 명일동,대지 62.75㎡ 건물 57.12㎡,37.5494403330957,127.150304746486
최종윤,장남,건물,근린생활시설,서울특별시 강동구 명일동 대지 62.75㎡ 중 1.56㎡ 건물57.12㎡ 중 5.70㎡,48000.0,서울특별시 강동구 명일동,대지 62.75㎡ 중 1.56㎡ 건물57.12㎡ 중 5.70㎡,37.5494403330957,127.150304746486
최종윤,배우자,건물,근린생활시설,서울특별시 강동구 명일동 대지 62.75㎡ 중 6.27㎡ 건물57.12㎡ 중 22.85㎡,192000.0,서울특별시 강동구 명일동,대지 62.75㎡ 중 6.27㎡ 건물57.12㎡ 중 22.85㎡,37.5494403330957,127.150304746486
최종윤,본인,건물,근린생활시설,서울특별시 강동구 명일동 대지 62.75㎡ 중 7.84㎡ 건물57.12㎡ 중 28.55㎡,240000.0,서울특별시 강동구 명일동,대지 62.75㎡ 중 7.84㎡ 건물57.12㎡ 중 28.55㎡,37.5494403330957,127.150304746486
이용선,본인,건물,근린생활시설,서울특별시 강동구 성내동 대지 24.87㎡ 건물 58.40㎡,344466.0,서울특별시 강동구 성내동,대지 24.87㎡ 건물 58.40㎡,37.5292748071427,127.130026914568
송병철,배우자,건물,근린생활시설,"서울특별시 동작구 상도동 건물 4,295.96㎡ 중 390.54㎡(건물 지분면적130.18㎡ 증가)",164394.0,서울특별시 동작구 상도동,"건물 4,295.96㎡ 중 390.54㎡(건물 지분면적130.18㎡ 증가)",37.4985163075707,126.939014238644
송병철,배우자,건물,근린생활시설,서울특별시 동작구 상도동 건물 59.31㎡ 중 5.39㎡ (건물지분면적1.80㎡ 증가),458.0,서울특별시 동작구 상도동,건물 59.31㎡ 중 5.39㎡ (건물지분면적1.80㎡ 증가),37.4985163075707,126.939014238644
김홍걸,본인,건물,근린생활시설,서울특별시 마포구 동교동 건물 129.61㎡ (건물 129.61㎡증가),77118.0,서울특별시 마포구 동교동,건물 129.61㎡ (건물 129.61㎡증가),37.557208530833,126.922261659865
김홍걸,본인,건물,근린생활시설,"서울특별시 마포구 동교동 대지 573.60㎡ 건물 656.22㎡(대지 573.60㎡ 증가, 건물 656.22㎡ 증가)",5506036.0,서울특별시 마포구 동교동,"대지 573.60㎡ 건물 656.22㎡(대지 573.60㎡ 증가, 건물 656.22㎡ 증가)",37.557208530833,126.922261659865
한무경,본인,건물,근린생활시설,"서울특별시 서초구 반포동 서흥빌딩 대지 0.00㎡ 건물 0.00㎡ (대지 413.90㎡ 감소, 건물 1,476.16㎡ 감소)",0.0,서울특별시 서초구 반포동,"서흥빌딩 대지 0.00㎡ 건물 0.00㎡ (대지 413.90㎡ 감소, 건물 1,476.16㎡ 감소)",37.5051446767402,127.013359062646
박정,배우자,건물,근린생활시설,서울특별시 송파구 석촌동 대지 339.80㎡ 중 135.92㎡ 건물928.76㎡ 중 371.50㎡,2220000.0,서울특별시 송파구 석촌동,대지 339.80㎡ 중 135.92㎡ 건물928.76㎡ 중 371.50㎡,37.5035646306704,127.103667384036
조의섭,본인,건물,근린생활시설,"서울특별시 영등포구 여의도동 대지 962.00㎡ 중 14.84㎡ 건물 1,663.00㎡ 중 59.90㎡",409311.0,서울특별시 영등포구 여의도동,"대지 962.00㎡ 중 14.84㎡ 건물 1,663.00㎡ 중 59.90㎡",37.5267849150832,126.930167091136
노우진,배우자,건물,근린생활시설,"서울특별시 용산구 산천동 삼성테마트 대지 13.87㎡ 건물3,460.00㎡",132000.0,서울특별시 용산구 산천동,"삼성테마트 대지 13.87㎡ 건물3,460.00㎡",37.535416505796,126.951801048783
조은희,배우자,건물,근린생활시설,서울특별시 용산구 원효로3가 대지 180.20㎡ 건물360.24㎡,2519199.0,서울특별시 용산구 원효로3가,대지 180.20㎡ 건물360.24㎡,37.53430510598,126.957635334291
이광재,배우자,건물,근린생활시설,서울특별시 은평구 불광동 대지 304.00㎡ 중 91.20㎡ 건물755.68㎡ 중 226.70㎡,831000.0,서울특별시 은평구 불광동,대지 304.00㎡ 중 91.20㎡ 건물755.68㎡ 중 226.70㎡,37.6176523268171,126.937059476367
유기홍,배우자,건물,근린생활시설,인천광역시 강화군 화도면 여차리 대지 494.00㎡ 건물36.00㎡,167000.0,인천광역시 강화군 화도면 여차리,대지 494.00㎡ 건물36.00㎡,37.6048448083792,126.399864622682
이학영,본인,건물,근린생활시설,"전라남도 구례군 토지면 내서리 대지 367.00㎡ 건물 107.08㎡ (대지 367.00㎡ 증가, 건물 107.08㎡ 증가)",105360.0,전라남도 구례군 토지면 내서리,"대지 367.00㎡ 건물 107.08㎡ (대지 367.00㎡ 증가, 건물 107.08㎡ 증가)",35.2587824709309,127.567088036366
소병훈,본인,건물,근린생활시설,"전라북도 군산시 조촌동 대지 1,505.70㎡ 중 167.30㎡ 건물236.00㎡ 중 33.70㎡",101153.0,전라북도 군산시 조촌동,"대지 1,505.70㎡ 중 167.30㎡ 건물236.00㎡ 중 33.70㎡",35.9730640100683,126.738019320783
소병훈,장녀,건물,근린생활시설,"전라북도 군산시 조촌동 대지 1,505.70㎡ 중 167.30㎡ 건물236.00㎡ 중 33.70㎡",101153.0,전라북도 군산시 조촌동,"대지 1,505.70㎡ 중 167.30㎡ 건물236.00㎡ 중 33.70㎡",35.9730640100683,126.738019320783
소병훈,차녀,건물,근린생활시설,"전라북도 군산시 조촌동 대지 1,505.70㎡ 중 167.30㎡ 건물236.00㎡ 중 33.70㎡",101153.0,전라북도 군산시 조촌동,"대지 1,505.70㎡ 중 167.30㎡ 건물236.00㎡ 중 33.70㎡",35.9730640100683,126.738019320783
문진석,본인,건물,근린생활시설,"충청남도 아산시 배방읍 장재리 빅토리아빌 대지 12.53㎡ 건물 72.00㎡ (대지 12.53㎡ 증가, 건물 72.00㎡ 증가)",192010.0,충청남도 아산시 배방읍 장재리 빅토리,"아빌 대지 12.53㎡ 건물 72.00㎡ (대지 12.53㎡ 증가, 건물 72.00㎡ 증가)",,
문진석,본인,건물,근린생활시설,충청남도 아산시 배방읍 장재리 빅토리아빌 대지 15.31㎡건물 88.00㎡,234680.0,충청남도 아산시 배방읍 장재리 빅토리,아빌 대지 15.31㎡건물 88.00㎡,,
임호선,배우자,건물,근린생활시설,충청북도 증평군 증평읍 창동리 대지 163.00㎡ 건물371.43㎡,350000.0,충청북도 증평군 증평읍 창동,리 대지 163.00㎡ 건물371.43㎡,36.7847932499909,127.578577740163
권은희,배우자,건물,근린생활시설,충청북도 청주시 서원구 산남동 두꺼비빌딩 대지 22.24㎡건물 106.76㎡,185720.0,충청북도 청주시 서원구 산남동,두꺼비빌딩 대지 22.24㎡건물 106.76㎡,36.6132892221879,127.466882101284
강기윤,배우자,건물,아파트(전세(임차)권),서울특별시 종로구 명륜2가 아남아파트 건물 124.03㎡,588000.0,서울특별시 종로구 명륜2가,아남아파트 건물 124.03㎡,37.584696454401,126.999030857136
강대식,본인,건물,다세대주택(전세(임차)권),대구광역시 동구 신서동 아가페 건물 19.83㎡,2000.0,대구광역시 동구 신서동,아가페 건물 19.83㎡,35.8729369783141,128.727195348274
강대식,본인,건물,사무실(전세(임차)권),대구광역시 동구 용계동 테바빌딩 건물 247.56㎡,30000.0,대구광역시 동구 용계동,테바빌딩 건물 247.56㎡,35.8762436666167,128.68934295574
강대식,본인,건물,오피스텔(전세(임차)권),"서울특별시 강서구 가양동 가양글로벌퍼스트 대지 28.12㎡건물 2,630.30㎡",10000.0,서울특별시 강서구 가양동,"가양글로벌퍼스트 대지 28.12㎡건물 2,630.30㎡",37.5693673262879,126.84732341674
강득구,장녀,건물,다세대주택(전세(임차)권),서울특별시 성동구 마장동 삼성홈타운 건물 18.06㎡,30000.0,서울특별시 성동구 마장동,삼성홈타운 건물 18.06㎡,37.5663795479871,127.045325760782
강득구,본인,건물,사무실(전세(임차)권),경기도 안양시 만안구 안양동 PROJECT 240 TOWER 건물104.65㎡,10000.0,경기도 안양시 만안구 안양동,PROJECT 240 TOWER 건물104.65㎡,37.3861273838989,126.915649986285
강민국,본인,건물,아파트(전세(임차)권),서울특별시 영등포구 당산동5가 당산센트럴아이파크 건물59.98㎡,630000.0,서울특별시 영등포구 당산동,5가 당산센트럴아이파크 건물59.98㎡,37.5402584246454,126.902165652703
강민정,차녀,건물,오피스텔(전세(임차)권),세종특별자치시 나성동 세종마루 건물 25.70㎡ (건물25.70㎡ 증가),125000.0,세종특별자치시 나성동,세종마루 건물 25.70㎡ (건물25.70㎡ 증가),36.4890988968745,127.263975556135
강병원,본인,건물,사무실(전세(임차)권),서울특별시 은평구 불광동 메트로타워 건물 99.60㎡,30000.0,서울특별시 은평구 불광동,메트로타워 건물 99.60㎡,37.6176523268171,126.937059476367
강선우,본인,건물,사무실(전세(임차)권),서울특별시 강서구 화곡동 세종빌딩 대지 476.30㎡ 건물229.62㎡,40000.0,서울특별시 강서구 화곡동,세종빌딩 대지 476.30㎡ 건물229.62㎡,37.5362848031695,126.848952280488
강선우,배우자,건물,아파트(전세(임차)권),서울특별시 강서구 화곡동 강서힐스테이트 건물 0.00㎡(건물 59.00㎡ 감소),0.0,서울특별시 강서구 화곡동,강서힐스테이트 건물 0.00㎡(건물 59.00㎡ 감소),37.5362848031695,126.848952280488
강선우,본인,건물,아파트(전세(임차)권),서울특별시 강서구 화곡동 강서힐스테이트 건물 84.99㎡(건물 84.99㎡ 증가),750000.0,서울특별시 강서구 화곡동,강서힐스테이트 건물 84.99㎡(건물 84.99㎡ 증가),37.5362848031695,126.848952280488
강선우,배우자,건물,아파트(전세(임차)권),서울특별시 종로구 내수동 경희궁의아침 3단지 건물124.00㎡ (건물 124.00㎡ 증가),50000.0,서울특별시 종로구 내수동,경희궁의아침 3단지 건물124.00㎡ (건물 124.00㎡ 증가),37.5733081682464,126.971962529742
강선우,배우자,건물,오피스텔(전세(임차)권),서울특별시 종로구 내수동 경희궁의아침 2단지 건물57.80㎡,20000.0,서울특별시 종로구 내수동,경희궁의아침 2단지 건물57.80㎡,37.5733081682464,126.971962529742
강은미,본인,건물,다세대주택(전세(임차)권),서울특별시 영등포구 당산동1가 건물 48.92㎡ (건물48.92㎡ 증가),100000.0,서울특별시 영등포구 당산동,1가 건물 48.92㎡ (건물48.92㎡ 증가),37.5402584246454,126.902165652703
강준현,본인,건물,사무실(전세(임차)권),세종특별자치시 조치원읍 죽림리 건물 178.50㎡,40000.0,세종특별자치시 조치원읍 죽림리,건물 178.50㎡,36.590950521849,127.296143569363
강준현,배우자,건물,아파트(전세(임차)권),세종특별자치시 종촌동 가재마을 5단지 건물 84.94㎡,220000.0,세종특별자치시 종촌동,가재마을 5단지 건물 84.94㎡,36.5044408935952,127.24680177397
강준현,본인,건물,오피스텔(전세(임차)권),서울특별시 영등포구 여의도동 엘지여의도에클라트 건물0.00㎡ (건물 38.01㎡ 감소),0.0,서울특별시 영등포구 여의도동,엘지여의도에클라트 건물0.00㎡ (건물 38.01㎡ 감소),37.5267849150832,126.930167091136
강훈식,본인,건물,상가(전세(임차)권),"충청남도 아산시 배방읍 공수리 삼영프라자 건물7,822.80㎡ 중 172.64㎡",10000.0,충청남도 아산시 배방읍 공수리,"삼영프라자 건물7,822.80㎡ 중 172.64㎡",36.7657537133238,127.055396274224
강훈식,본인,건물,아파트(전세(임차)권),충청남도 아산시 배방읍 장재리 요진와이시티 건물84.00㎡,30000.0,충청남도 아산시 배방읍 장재리,요진와이시티 건물84.00㎡,36.7914673046102,127.100418833748
강훈식,본인,건물,오피스텔(전세(임차)권),서울특별시 마포구 도화동 마포트라팰리스 건물 73.72㎡,20000.0,서울특별시 마포구 도화동,마포트라팰리스 건물 73.72㎡,37.541549712387,126.949873511116
고민정,본인,건물,단독주택(전세(임차)권),서울특별시 광진구 구의동 건물 164.30㎡,30000.0,서울특별시 광진구 구의동,건물 164.30㎡,37.5502741239803,127.093135225891
고민정,본인,건물,아파트(전세(임차)권),서울특별시 광진구 구의동 구의현대2단지아파트 건물84.91㎡,680000.0,서울특별시 광진구 구의동,구의현대2단지아파트 건물84.91㎡,37.5502741239803,127.093135225891
고영인,배우자,건물,사무실(전세(임차)권),경기도 안산시 단원구 선부동 건물 40.00㎡,5000.0,경기도 안산시 단원구 선부동,건물 40.00㎡,37.3341794459411,126.804370669728
고영인,본인,건물,사무실(전세(임차)권),경기도 안산시 단원구 선부동 안산세이브시티 건물137.20㎡,10000.0,경기도 안산시 단원구 선부동,안산세이브시티 건물137.20㎡,37.3341794459411,126.804370669728
고영인,부,건물,아파트(전세(임차)권),서울특별시 동작구 상도동 건영아파트 건물 32.80㎡,8300.0,서울특별시 동작구 상도동,건영아파트 건물 32.80㎡,37.4985163075707,126.939014238644
고영인,장남,건물,오피스텔(전세(임차)권),서울특별시 강남구 역삼동 에벤에셀 건물 0.00㎡ (건물29.95㎡ 감소),0.0,서울특별시 강남구 역삼동,에벤에셀 건물 0.00㎡ (건물29.95㎡ 감소),37.4953666908089,127.03306536185
구자근,장남,건물,다세대주택(전세(임차)권),서울특별시 동작구 흑석동 에버그린I 건물 51.28㎡ 중17.00㎡,10000.0,서울특별시 동작구 흑석동,에버그린I 건물 51.28㎡ 중17.00㎡,37.505775015354,126.966590753167
구자근,본인,건물,다세대주택(전세(임차)권),서울특별시 동작구 흑석동 에버그린I 건물 51.28㎡ 중34.28㎡,20000.0,서울특별시 동작구 흑석동,에버그린I 건물 51.28㎡ 중34.28㎡,37.505775015354,126.966590753167
구자근,배우자,건물,복합건물(주택+상가)(전세(임차)권),경상북도 구미시 봉곡동 건물 0.00㎡ (건물 50.00㎡ 감소),0.0,경상북도 구미시 봉곡동,건물 0.00㎡ (건물 50.00㎡ 감소),36.1579556953578,128.308782210737
구자근,본인,건물,사무실(전세(임차)권),경상북도 구미시 송정동 건물 175.76㎡ (건물 175.76㎡증가),20000.0,경상북도 구미시 송정동,건물 175.76㎡ (건물 175.76㎡증가),36.1184890871925,128.347168955925
구자근,본인,건물,사무실(전세(임차)권),"경상북도 구미시 원평동 대지 0.00㎡ 건물 0.00㎡ (대지2,409.48㎡ 감소, 건물 100.00㎡ 감소)",0.0,경상북도 구미시 원평동,"대지 0.00㎡ 건물 0.00㎡ (대지2,409.48㎡ 감소, 건물 100.00㎡ 감소)",36.1283686839148,128.330120333505
권명호,본인,건물,사무실(전세(임차)권),울산광역시 동구 방어동 흥원빌딩 건물 163.78㎡,20000.0,울산광역시 동구 방어동,흥원빌딩 건물 163.78㎡,35.4862304417203,129.423974129488
권명호,배우자,건물,상가(전세(임차)권),울산광역시 남구 달동 대지 222.90㎡ 중 0.00㎡ 건물264.10㎡ 중 57.00㎡,35000.0,울산광역시 남구 달동,대지 222.90㎡ 중 0.00㎡ 건물264.10㎡ 중 57.00㎡,35.5363579790753,129.316532962709
권명호,본인,건물,오피스텔(전세(임차)권),서울특별시 마포구 공덕동 마포현대하이엘 건물 46.48㎡,10000.0,서울특별시 마포구 공덕동,마포현대하이엘 건물 46.48㎡,37.550174347382,126.960034513244
권영진,본인,건물,아파트(전세(임차)권),서울특별시 서초구 잠원동 신반포22차아파트 건물 0.00㎡(건물 0.00㎡ 감소),0.0,서울특별시 서초구 잠원동,신반포22차아파트 건물 0.00㎡(건물 0.00㎡ 감소),37.5149186880221,127.014102820234
권영진,본인,건물,아파트(전세(임차)권),서울특별시 서초구 잠원동 신반포자이 건물 85.00㎡ (건물19.02㎡ 감소),500000.0,서울특별시 서초구 잠원동,신반포자이 건물 85.00㎡ (건물19.02㎡ 감소),37.5149186880221,127.014102820234
권은희,배우자,건물,아파트(전세(임차)권),서울특별시 마포구 상수동 래미안밤섬리베뉴 1차 건물84.99㎡,400000.0,서울특별시 마포구 상수동,래미안밤섬리베뉴 1차 건물84.99㎡,37.5456269289384,126.924776753718
권칠승,본인,건물,사무실(전세(임차)권),경기도 화성시 병점동 씨네샤르망 건물 137.00㎡,15000.0,경기도 화성시 병점동,씨네샤르망 건물 137.00㎡,37.2069172825447,127.037269392114
권칠승,장녀,건물,오피스텔(전세(임차)권),서울특별시 동대문구 답십리동 메트로팰리스 건물 0.00㎡(건물 25.47㎡ 감소),0.0,서울특별시 동대문구 답십리동,메트로팰리스 건물 0.00㎡(건물 25.47㎡ 감소),37.5690668295007,127.056655839753
권혁기,배우자,건물,아파트(전세(임차)권),서울특별시 용산구 이촌동 한가람아파트 건물 114.96㎡,850000.0,서울특별시 용산구 이촌동,한가람아파트 건물 114.96㎡,37.5141954312251,126.972097769518
기동민,배우자,건물,아파트(전세(임차)권),서울특별시 성북구 길음동 래미안길음센터피스 건물84.66㎡,500000.0,서울특별시 성북구 길음동,래미안길음센터피스 건물84.66㎡,37.6076658267475,127.023343590916
김경만,장남,건물,아파트(전세(임차)권),경기도 광명시 소하동 기아타운 건물 59.50㎡ (건물59.50㎡ 증가),5000.0,경기도 광명시 소하동,기아타운 건물 59.50㎡ (건물59.50㎡ 증가),37.4522110542156,126.885011358569
김경만,배우자,건물,아파트(전세(임차)권),서울특별시 강서구 내발산동 마곡수명산파크6단지아파트건물 84.68㎡,435000.0,서울특별시 강서구 내발산동,마곡수명산파크6단지아파트건물 84.68㎡,37.5543737621718,126.83326640676
김경협,본인,건물,아파트(전세(임차)권),경기도 부천시 원미구 춘의동 우민늘사랑아파트2차 건물422.35㎡,300000.0,경기도 부천시 원미구 춘의동,우민늘사랑아파트2차 건물422.35㎡,37.5026880955635,126.785904754648
김교흥,장남,건물,다세대주택(전세(임차)권),경기도 부천시 역곡동 벧엘원룸 건물 15.00㎡ (건물15.00㎡ 증가),5000.0,경기도 부천시 역곡동,벧엘원룸 건물 15.00㎡ (건물15.00㎡ 증가),37.4892860499492,126.816680853404
김교흥,본인,건물,사무실(전세(임차)권),"인천광역시 서구 가정동 쓰리엠타워 건물 0.00㎡ 중 0.00㎡ (건물 총면적 118.41㎡ 감소, 지분면적 52.89㎡ 감소)",0.0,인천광역시 서구 가정동,"쓰리엠타워 건물 0.00㎡ 중 0.00㎡ (건물 총면적 118.41㎡ 감소, 지분면적 52.89㎡ 감소)",37.5232288067733,126.674522669542
김교흥,본인,건물,사무실(전세(임차)권),인천광역시 서구 가정동 쓰리엠타워 건물 101.10㎡,20000.0,인천광역시 서구 가정동,쓰리엠타워 건물 101.10㎡,37.5232288067733,126.674522669542
김기현,본인,건물,사무실(전세(임차)권),울산광역시 남구 달동 대지 294.80㎡ 중 0.00㎡ 건물599.29㎡ 중 165.75㎡,10000.0,울산광역시 남구 달동,대지 294.80㎡ 중 0.00㎡ 건물599.29㎡ 중 165.75㎡,35.5363579790753,129.316532962709
김기현,배우자,건물,아파트(전세(임차)권),서울특별시 성동구 옥수동 옥수하이츠아파트 건물139.00㎡,1075000.0,서울특별시 성동구 옥수동,옥수하이츠아파트 건물139.00㎡,37.5435886378545,127.013438338877
김남국,본인,건물,사무실(전세(임차)권),경기도 안산시 단원구 고잔동 밀레니엄 2 건물 144.00㎡,20000.0,경기도 안산시 단원구 고잔동,밀레니엄 2 건물 144.00㎡,37.3219394584909,126.832292027071
김남국,본인,건물,아파트(전세(임차)권),경기도 안산시 단원구 고잔동 안산레이크타운 푸르지오건물 84.67㎡ (건물 84.67㎡ 증가),600000.0,경기도 안산시 단원구 고잔동,안산레이크타운 푸르지오건물 84.67㎡ (건물 84.67㎡ 증가),37.3219394584909,126.832292027071
김남국,본인,건물,아파트(전세(임차)권),경기도 안산시 단원구 고잔동 호수공원대림아파트 건물0.00㎡ (건물 151.71㎡ 감소),0.0,경기도 안산시 단원구 고잔동,호수공원대림아파트 건물0.00㎡ (건물 151.71㎡ 감소),37.3219394584909,126.832292027071
박덕흠,배우자,건물,기타,경기도 가평군 청평면 고성리 산 건물 68.50㎡,17970.0,경기도 가평군 청평면 고성리,산 건물 68.50㎡,37.7161355723899,127.496403426322
최춘식,배우자,건물,기타,경기도 포천시 관인면 삼율리 대지 357.00㎡ 건물 120.00㎡,56626.0,경기도 포천시 관인면 삼율리,대지 357.00㎡ 건물 120.00㎡,38.1411228808068,127.204033764185
김승수,부,건물,기타,경상북도 상주시 모서면 삼포리 건물 264.90㎡,8440.0,경상북도 상주시 모서면 삼포리,건물 264.90㎡,36.3353064049664,127.95368201667
김승수,부,건물,기타,경상북도 상주시 모서면 삼포리 건물 87.30㎡ 중 29.10㎡,9894.0,경상북도 상주시 모서면 삼포리,건물 87.30㎡ 중 29.10㎡,36.3353064049664,127.95368201667
박형수,본인,건물,기타,"경상북도 울진군 평해읍 월송리 대지 2,130.00㎡ 건물470.80㎡",21368.0,경상북도 울진군 평해읍 월송리,"대지 2,130.00㎡ 건물470.80㎡",36.7374956960367,129.464825080815
박형수,본인,건물,기타,경상북도 울진군 평해읍 월송리 대지 301.00㎡ 건물198.00㎡,1941.0,경상북도 울진군 평해읍 월송리,대지 301.00㎡ 건물198.00㎡,36.7374956960367,129.464825080815
조명희,배우자,건물,기타,경상북도 포항시 남구 오천읍 세계리 대지 698.00㎡ 건물123.00㎡,92800.0,경상북도 포항시 남구 오천읍 세계리,대지 698.00㎡ 건물123.00㎡,35.9609385403841,129.430993763879
박성중,장녀,건물,기타,서울특별시 양천구 목동 목동신시가지아파트 대지387.38㎡ 중 193.69㎡ 건물 304.12㎡ 중 152.06㎡,1543037.0,서울특별시 양천구 목동 목동,신시가지아파트 대지387.38㎡ 중 193.69㎡ 건물 304.12㎡ 중 152.06㎡,37.5304364108361,126.870989288343
박성중,본인,건물,기타,서울특별시 양천구 목동 목동신시가지아파트 대지466.42㎡ 중 233.21㎡ 건물 366.18㎡ 중 183.09㎡,1912008.0,서울특별시 양천구 목동 목동,신시가지아파트 대지466.42㎡ 중 233.21㎡ 건물 366.18㎡ 중 183.09㎡,37.5304364108361,126.870989288343
박성중,배우자,건물,기타,서울특별시 양천구 목동 목동신시가지아파트 대지466.42㎡ 중 233.21㎡ 건물 366.18㎡ 중 183.09㎡,1912008.0,서울특별시 양천구 목동 목동,신시가지아파트 대지466.42㎡ 중 233.21㎡ 건물 366.18㎡ 중 183.09㎡,37.5304364108361,126.870989288343
채수근,모,건물,기타,충청남도 당진시 신평면 남산리 건물 213.00㎡,71000.0,충청남도 당진시 신평면 남산리,건물 213.00㎡,36.8701593526775,126.770007381407
채수근,모,건물,기타,충청남도 당진시 신평면 남산리 산 건물 59.13㎡,20000.0,충청남도 당진시 신평면 남산리,산 건물 59.13㎡,36.8701593526775,126.770007381407
배진교,배우자,건물,기타,충청남도 서산시 성연면 평리 대지 72.50㎡ 건물 18.00㎡,8543.0,충청남도 서산시 성연면 평리,대지 72.50㎡ 건물 18.00㎡,36.8383547404474,126.46455222881
김남국,본인,건물,오피스텔(전세(임차)권),서울특별시 영등포구 여의도동 여의도 플렉시움 오피스텔건물 34.49㎡ (건물 34.49㎡ 증가),200000.0,서울특별시 영등포구 여의도동,여의도 플렉시움 오피스텔건물 34.49㎡ (건물 34.49㎡ 증가),37.5267849150832,126.930167091136
김도읍,본인,건물,사무실(전세(임차)권),부산광역시 강서구 대저1동 건물 85.80㎡,20000.0,부산광역시 강서구 대저1동,건물 85.80㎡,35.2154530980837,128.97681509437
박영순,배우자,건물,다가구주택,대전광역시 대덕구 중리동 대지 161.20㎡ 건물 113.11㎡,130000.0,대전광역시 대덕구 중리동,대지 161.20㎡ 건물 113.11㎡,36.3605737779523,127.426420863562
조경태,모,건물,다가구주택,부산광역시 사하구 신평동 대지 46.00㎡ 중 15.33㎡ 건물146.16㎡ 중 48.76㎡,16000.0,부산광역시 사하구 신평동,대지 46.00㎡ 중 15.33㎡ 건물146.16㎡ 중 48.76㎡,35.0916245823035,128.96525131852
조기열,모,건물,다가구주택,"서울특별시 강동구 길동 대지 167.60㎡ 건물 349.32㎡(대지 167.60㎡ 증가, 건물 349.32㎡ 증가)",1099000.0,서울특별시 강동구 길동,"대지 167.60㎡ 건물 349.32㎡(대지 167.60㎡ 증가, 건물 349.32㎡ 증가)",37.5344859624471,127.142712345548
서정숙,본인,건물,다가구주택,인천광역시 연수구 연수동 대지 219.90㎡ 중 109.95㎡ 건물515.16㎡ 중 257.58㎡,277500.0,인천광역시 연수구 연수동,대지 219.90㎡ 중 109.95㎡ 건물515.16㎡ 중 257.58㎡,37.42221249729,126.681481155615
서정숙,배우자,건물,다가구주택,인천광역시 연수구 연수동 대지 219.90㎡ 중 109.95㎡ 건물515.16㎡ 중 257.58㎡,277500.0,인천광역시 연수구 연수동,대지 219.90㎡ 중 109.95㎡ 건물515.16㎡ 중 257.58㎡,37.42221249729,126.681481155615
김두관,본인,건물,근린생활시설(전세(임차)권),경상남도 양산시 덕계동 진영빌딩 건물 145.45㎡ (건물145.45㎡ 증가),20000.0,경상남도 양산시 덕계동,진영빌딩 건물 145.45㎡ (건물145.45㎡ 증가),35.3750114142141,129.149287564323
김두관,본인,건물,근린생활시설(전세(임차)권),경상남도 양산시 중부동 나래프라자 건물 0.00㎡ (건물104.42㎡ 감소),0.0,경상남도 양산시 중부동,나래프라자 건물 0.00㎡ (건물104.42㎡ 감소),35.3395324207356,129.033717982829
김두관,본인,건물,근린생활시설(전세(임차)권),경상남도 양산시 평산동 흙표침대 건물 0.00㎡ (건물163.96㎡ 감소),0.0,경상남도 양산시 평산동,흙표침대 건물 0.00㎡ (건물163.96㎡ 감소),35.3815622180432,129.146974672454
김두관,배우자,건물,아파트(전세(임차)권),경기도 김포시 풍무동 풍무자이 건물 133.78㎡,360000.0,경기도 김포시 풍무동,풍무자이 건물 133.78㎡,37.6021763512159,126.722044880847
김두관,본인,건물,아파트(전세(임차)권),경상남도 양산시 삼호동 웅상신도시 푸르지오 건물 0.00㎡(건물 84.96㎡ 감소),0.0,경상남도 양산시 삼호동,웅상신도시 푸르지오 건물 0.00㎡(건물 84.96㎡ 감소),35.4140677065355,129.178534584842
김두관,본인,건물,아파트(전세(임차)권),경상남도 양산시 주진동 서희스타힐스 건물 74.85㎡ (건물74.85㎡ 증가),100000.0,경상남도 양산시 주진동,서희스타힐스 건물 74.85㎡ (건물74.85㎡ 증가),35.3952099195822,129.14000283264
김미애,본인,건물,단독주택(전세(임차)권),부산광역시 해운대구 재송동 건물 149.15㎡,10000.0,부산광역시 해운대구 재송동,건물 149.15㎡,35.1855603344596,129.127939014337
김미애,본인,건물,오피스텔(전세(임차)권),서울특별시 영등포구 여의도동 더하우스소호 건물 39.58㎡,40000.0,서울특별시 영등포구 여의도동,더하우스소호 건물 39.58㎡,37.5267849150832,126.930167091136
김민기,장남,건물,근린생활시설(전세(임차)권),"서울특별시 성북구 종암동 건물 131.72㎡ 중 14.00㎡ (건물 총면적 131.72㎡ 증가, 지분면적 14.00㎡ 증가)",10000.0,서울특별시 성북구 종암동,"건물 131.72㎡ 중 14.00㎡ (건물 총면적 131.72㎡ 증가, 지분면적 14.00㎡ 증가)",37.5990602270307,127.035212918853
김민기,배우자,건물,아파트(전세(임차)권),경기도 용인시 기흥구 상하동 지석마을 진흥더루벤스 건물152.46㎡,460000.0,경기도 용인시 기흥구 상하동,지석마을 진흥더루벤스 건물152.46㎡,37.2705605523124,127.13845601465
김민석,본인,건물,근린생활시설(전세(임차)권),"서울특별시 영등포구 대림동 대림하우스 대지 0.00㎡ 중 0.00㎡건물 0.00㎡ 중 0.00㎡ (대지 지분면적 0.00㎡ 감소,건물 지분면적 86.00㎡ 감소)",0.0,서울특별시 영등포구 대림동,"대림하우스 대지 0.00㎡ 중 0.00㎡건물 0.00㎡ 중 0.00㎡ (대지 지분면적 0.00㎡ 감소,건물 지분면적 86.00㎡ 감소)",37.4925087229048,126.902006335554
김민석,본인,건물,근린생활시설(전세(임차)권),"서울특별시 영등포구 신길동 래미안에스티움 상가동 대지 0.00㎡ 중 0.00㎡건물 0.00㎡ 중 0.00㎡ (대지 지분면적0.00㎡ 감소, 건물 지분면적 42.49㎡ 감소)",0.0,서울특별시 영등포구 신길동 래미안에스티움 상가동,"대지 0.00㎡ 중 0.00㎡건물 0.00㎡ 중 0.00㎡ (대지 지분면적0.00㎡ 감소, 건물 지분면적 42.49㎡ 감소)",,
김민석,본인,건물,다세대주택(전세(임차)권),서울특별시 영등포구 신길동 BEST HOUSE 대지 169.00㎡ 중17.89㎡ 건물 306.92㎡ 중 23.49㎡,10000.0,서울특별시 영등포구 신길동,BEST HOUSE 대지 169.00㎡ 중17.89㎡ 건물 306.92㎡ 중 23.49㎡,37.5041663202169,126.91406973946
김민석,본인,건물,단독주택(전세(임차)권),"서울특별시 영등포구 신길동 하늘채빌 대지 0.00㎡ 건물 0.00㎡ 중 0.00㎡ (대지 182.00㎡ 감소, 건물 총면적329.52㎡ 감소, 지분면적 77.90㎡ 감소)",0.0,서울특별시 영등포구 신길동,"하늘채빌 대지 0.00㎡ 건물 0.00㎡ 중 0.00㎡ (대지 182.00㎡ 감소, 건물 총면적329.52㎡ 감소, 지분면적 77.90㎡ 감소)",37.5041663202169,126.91406973946
김민석,본인,건물,상가(전세(임차)권),"서울특별시 영등포구 신길동 신화빌딩 건물 493.12㎡ 중99.32㎡ (건물 총면적 493.12㎡ 증가, 지분면적 99.32㎡ 증가)",30000.0,서울특별시 영등포구 신길동,"신화빌딩 건물 493.12㎡ 중99.32㎡ (건물 총면적 493.12㎡ 증가, 지분면적 99.32㎡ 증가)",37.5041663202169,126.91406973946
김민석,배우자,건물,아파트(전세(임차)권),서울특별시 영등포구 여의도동 여의도시범아파트 건물60.96㎡ (건물 60.96㎡ 증가),80000.0,서울특별시 영등포구 여의도동,여의도시범아파트 건물60.96㎡ (건물 60.96㎡ 증가),37.5267849150832,126.930167091136
김민철,본인,건물,근린생활시설(전세(임차)권),경기도 의정부시 금오동 대송프라자 건물 550.63㎡ 중82.64㎡,20000.0,경기도 의정부시 금오동,대송프라자 건물 550.63㎡ 중82.64㎡,37.755388211865,127.059748029924
설훈,장남,건물,다세대주택,경기도 부천시 춘의동 아이파크 건물 57.88㎡,181000.0,경기도 부천시 춘의동,아이파크 건물 57.88㎡,37.5026880955635,126.785904754648
용혜인,본인,건물,다세대주택,"경기도 안산시 상록구 사동 리슈빌 대지 0.00㎡ 중 0.00㎡건물 0.00㎡ (대지 지분면적 35.61㎡ 감소, 건물71.15㎡ 감소)",0.0,경기도 안산시 상록구 사동,"리슈빌 대지 0.00㎡ 중 0.00㎡건물 0.00㎡ (대지 지분면적 35.61㎡ 감소, 건물71.15㎡ 감소)",37.2971248482643,126.851055922583
노우진,모,건물,다세대주택,부산광역시 중구 영주동 대지 76.00㎡ 건물 136.30㎡,75430.0,부산광역시 중구 영주동,대지 76.00㎡ 건물 136.30㎡,35.1118639237961,129.03199111519
김경만,본인,건물,다세대주택,서울특별시 강서구 등촌동 로얄맨션 건물 65.83㎡,335000.0,서울특별시 강서구 등촌동,로얄맨션 건물 65.83㎡,37.562237476114,126.843670821456
김경만,차남,건물,다세대주택,서울특별시 강서구 화곡동 대안빌라 건물 65.45㎡,200000.0,서울특별시 강서구 화곡동,대안빌라 건물 65.45㎡,37.5362848031695,126.848952280488
인재근,본인,건물,다세대주택,서울특별시 도봉구 창동 삼익빌라 건물 139.95㎡,492000.0,서울특별시 도봉구 창동,삼익빌라 건물 139.95㎡,37.6522582058481,127.045432300312
정찬민,배우자,건물,다세대주택,서울특별시 동작구 사당동 이수빌 건물 21.50㎡ (건물21.50㎡ 증가),81500.0,서울특별시 동작구 사당동,이수빌 건물 21.50㎡ (건물21.50㎡ 증가),37.483932674151,126.9731356614
정찬민,배우자,건물,다세대주택,서울특별시 동작구 사당동 이수빌 건물 44.24㎡ (건물44.24㎡ 증가),169000.0,서울특별시 동작구 사당동,이수빌 건물 44.24㎡ (건물44.24㎡ 증가),37.483932674151,126.9731356614
박정하,배우자,건물,다세대주택,서울특별시 서대문구 연희동 대지 49.41㎡ 건물 51.24㎡,164000.0,서울특별시 서대문구 연희동,대지 49.41㎡ 건물 51.24㎡,37.573910010416,126.935230751932
노우진,차녀,건물,다세대주택,서울특별시 서초구 양재동 라임에이 건물 29.90㎡,420000.0,서울특별시 서초구 양재동,라임에이 건물 29.90㎡,37.4720040276214,127.037463917199
김민석,모,건물,다세대주택,서울특별시 양천구 목동 한강빌라 대지 198.00㎡ 건물69.95㎡,172000.0,서울특별시 양천구 목동,한강빌라 대지 198.00㎡ 건물69.95㎡,37.5304364108361,126.870989288343
김예지,본인,건물,다세대주택,서울특별시 용산구 청파동3가 백산빌라트B 건물 101.41㎡,441000.0,서울특별시 용산구 청파동,3가 백산빌라트B 건물 101.41㎡,37.5454308035402,126.969863704612
지성호,본인,건물,다세대주택,"서울특별시 용산구 효창동 대지 17.61㎡ 건물 29.10㎡(대지 17.61㎡ 증가, 건물 29.10㎡ 증가)",330000.0,서울특별시 용산구 효창동,"대지 17.61㎡ 건물 29.10㎡(대지 17.61㎡ 증가, 건물 29.10㎡ 증가)",37.5424588083351,126.9618988792
양이원영,본인,건물,다세대주택,서울특별시 종로구 누상동 원아트빌 대지 122.30㎡ 건물38.11㎡,229000.0,서울특별시 종로구 누상동,원아트빌 대지 122.30㎡ 건물38.11㎡,37.5800268845222,126.962264659143
양이원영,배우자,건물,다세대주택,"서울특별시 종로구 누상동 원아트빌 대지 122.30㎡ 건물38.11㎡ (건물 3,772.89㎡ 감소)",229000.0,서울특별시 종로구 누상동,"원아트빌 대지 122.30㎡ 건물38.11㎡ (건물 3,772.89㎡ 감소)",37.5800268845222,126.962264659143
이장섭,본인,건물,다세대주택,충청북도 청주시 서원구 미평동 힐타운하우스 건물202.26㎡ (건물 202.26㎡ 증가),590000.0,충청북도 청주시 서원구 미평동,힐타운하우스 건물202.26㎡ (건물 202.26㎡ 증가),36.6042490821192,127.459455451147
김병기,본인,건물,사무실(전세(임차)권),서울특별시 동작구 상도동 대경빌딩 건물 178.27㎡,30000.0,서울특별시 동작구 상도동,대경빌딩 건물 178.27㎡,37.4985163075707,126.939014238644
김병기,본인,건물,아파트(전세(임차)권),서울특별시 동작구 대방동 e-편한세상 건물 0.00㎡ (건물131.64㎡ 감소),0.0,서울특별시 동작구 대방동,e-편한세상 건물 0.00㎡ (건물131.64㎡ 감소),37.508164261,126.926343500008
김병기,본인,건물,아파트(전세(임차)권),"서울특별시 동작구 대방동 대방2차 e-편한세상 건물131,637.00㎡ (건물 131,637.00㎡ 증가)",1100000.0,서울특별시 동작구 대방동,"대방2차 e-편한세상 건물131,637.00㎡ (건물 131,637.00㎡ 증가)",37.508164261,126.926343500008
김병욱(경기 성남시분당구을),차남,건물,오피스텔(전세(임차)권),서울특별시 서대문구 대현동 건물 17.66㎡ (건물 17.66㎡증가),10000.0,서울특별시 서대문구 대현동,건물 17.66㎡ (건물 17.66㎡증가),37.5607686463542,126.947212193537
김병욱(경북 포항시남구울릉군),배우자,건물,아파트(전세(임차)권),경상북도 포항시 남구 효자동 테라비아타 in 지곡 건물84.79㎡ (건물 84.79㎡ 증가),550000.0,경상북도 포항시 남구 효자동,테라비아타 in 지곡 건물84.79㎡ (건물 84.79㎡ 증가),36.0058519083738,129.336135379501
김병욱(경북 포항시남구울릉군),본인,건물,아파트(전세(임차)권),경상북도 포항시 남구 효자동 효자풍림아이원아파트 건물0.00㎡ (건물 84.98㎡ 감소),0.0,경상북도 포항시 남구 효자동,효자풍림아이원아파트 건물0.00㎡ (건물 84.98㎡ 감소),36.0058519083738,129.336135379501
김병주,장남,건물,다가구주택(전세(임차)권),충청남도 아산시 둔포면 운용리 정운빌 건물 0.00㎡ (건물29.00㎡ 감소),0.0,충청남도 아산시 둔포면 운용리,정운빌 건물 0.00㎡ (건물29.00㎡ 감소),36.9328176339828,127.070813840074
김상훈,본인,건물,사무실(전세(임차)권),대구광역시 서구 평리동 경총회관 건물 109.18㎡ 중53.77㎡,30000.0,대구광역시 서구 평리동,경총회관 건물 109.18㎡ 중53.77㎡,35.8756485454503,128.5634751646
김상훈,본인,건물,아파트(전세(임차)권),대구광역시 서구 내당동 황제맨션 건물 138.00㎡,270000.0,대구광역시 서구 내당동,황제맨션 건물 138.00㎡,35.8606854560362,128.560736898516
김상훈,본인,건물,아파트(전세(임차)권),서울특별시 용산구 이촌동 우성아파트 건물 80.88㎡,300000.0,서울특별시 용산구 이촌동,우성아파트 건물 80.88㎡,37.5141954312251,126.972097769518
김석기,본인,건물,사무실(전세(임차)권),경상북도 경주시 용강동 죽우빌딩 건물 369.20㎡ 중213.35㎡,10000.0,경상북도 경주시 용강동,죽우빌딩 건물 369.20㎡ 중213.35㎡,35.8642999180602,129.223174575211
김석기,모,건물,아파트(전세(임차)권),경상북도 경주시 황성동 건물 105.12㎡,40000.0,경상북도 경주시 황성동,건물 105.12㎡,35.872244045713,129.219247373959
김선교,본인,건물,복합건물(주택+상가)(전세(임차)권),경기도 여주시 상동 대지 409.40㎡ 건물 193.30㎡,10000.0,경기도 여주시 상동,대지 409.40㎡ 건물 193.30㎡,37.290746465849,127.649692377046
김성원,본인,건물,사무실(전세(임차)권),경기도 동두천시 지행동 건물 225.00㎡,10000.0,경기도 동두천시 지행동,건물 225.00㎡,37.8898229961777,127.064221938883
김성원,본인,건물,사무실(전세(임차)권),경기도 연천군 전곡읍 전곡리 건물 105.88㎡,5000.0,경기도 연천군 전곡읍 전곡리,건물 105.88㎡,38.0174964674195,127.064292193936
김성주,본인,건물,오피스텔(전세(임차)권),"서울특별시 영등포구 영등포동8가 당산역리버리치오피스텔 대지 1,662.50㎡ 건물 39.98㎡",346500.0,서울특별시 영등포구 영등포동,"8가 당산역리버리치오피스텔 대지 1,662.50㎡ 건물 39.98㎡",37.5134118222975,126.906168599588
김성환,본인,건물,사무실(전세(임차)권),서울특별시 노원구 상계동 주양빌딩 건물 105.60㎡,20000.0,서울특별시 노원구 상계동,주양빌딩 건물 105.60㎡,37.66125057554,127.060252770712
김성환,배우자,건물,아파트(전세(임차)권),서울특별시 노원구 상계동 상계2차중앙하이츠아파트 건물134.97㎡,472500.0,서울특별시 노원구 상계동,상계2차중앙하이츠아파트 건물134.97㎡,37.66125057554,127.060252770712
김수옥,배우자,건물,단독주택(전세(임차)권),전라남도 장성군 삼서면 유평리 대지 350.30㎡ 건물104.05㎡,6500.0,전라남도 장성군 삼서면 유평리,대지 350.30㎡ 건물104.05㎡,35.2470607579182,126.627807626261
김수흥,배우자,건물,아파트(전세(임차)권),전라북도 익산시 모현동1가 익산e편한세상 건물 0.00㎡(건물 84.88㎡ 감소),0.0,전라북도 익산시 모현동,1가 익산e편한세상 건물 0.00㎡(건물 84.88㎡ 감소),35.9481822061813,126.945468232545
김수흥,본인,건물,아파트(전세(임차)권),전라북도 익산시 모현동1가 익산e편한세상 건물 84.88㎡(건물 84.88㎡ 증가),10000.0,전라북도 익산시 모현동,1가 익산e편한세상 건물 84.88㎡(건물 84.88㎡ 증가),35.9481822061813,126.945468232545
김승남,배우자,건물,아파트(전세(임차)권),"광주광역시 동구 용산동 모아엘가 에듀파크 건물30,957.20㎡ (건물 30,957.20㎡ 증가)",100000.0,광주광역시 동구 용산동,"모아엘가 에듀파크 건물30,957.20㎡ (건물 30,957.20㎡ 증가)",35.1154633985841,126.924339422578
김승남,본인,건물,오피스텔(전세(임차)권),서울특별시 마포구 도화동 SK허브그린 건물 38.51㎡,10000.0,서울특별시 마포구 도화동,SK허브그린 건물 38.51㎡,37.541549712387,126.949873511116
김승수,배우자,건물,아파트(전세(임차)권),대구광역시 북구 국우동 부영아파트 건물 81.15㎡ (건물81.15㎡ 증가),280000.0,대구광역시 북구 국우동,부영아파트 건물 81.15㎡ (건물81.15㎡ 증가),35.947994862814,128.575396773359
김승수,본인,건물,아파트(전세(임차)권),"대구광역시 북구 동천동 동화골든빌 건물 0.00㎡ 중 0.00㎡ (건물 총면적 57.61㎡ 감소, 지분면적 28.80㎡ 감소)",0.0,대구광역시 북구 동천동 동,"화골든빌 건물 0.00㎡ 중 0.00㎡ (건물 총면적 57.61㎡ 감소, 지분면적 28.80㎡ 감소)",,
김승수,배우자,건물,아파트(전세(임차)권),"대구광역시 북구 동천동 동화골든빌 건물 0.00㎡ 중 0.00㎡ (건물 총면적 57.61㎡ 감소, 지분면적 28.80㎡ 감소)",0.0,대구광역시 북구 동천동 동,"화골든빌 건물 0.00㎡ 중 0.00㎡ (건물 총면적 57.61㎡ 감소, 지분면적 28.80㎡ 감소)",,
김승원,본인,건물,사무실(전세(임차)권),경기도 수원시 장안구 송죽동 농협 건물 205.92㎡ (건물205.92㎡ 증가),30000.0,경기도 수원시 장안구 송죽동,농협 건물 205.92㎡ (건물205.92㎡ 증가),37.3005053421742,127.006983971536
김승원,본인,건물,사무실(전세(임차)권),경기도 수원시 장안구 정자동 라이프스포츠 수원 건물0.00㎡ (건물 60.00㎡ 감소),0.0,경기도 수원시 장안구 정자동,라이프스포츠 수원 건물0.00㎡ (건물 60.00㎡ 감소),37.3017558325298,126.990841281045
김승원,배우자,건물,아파트(전세(임차)권),경기도 수원시 장안구 정자동 화서역 파크푸르지오 건물84.81㎡,560000.0,경기도 수원시 장안구 정자동,화서역 파크푸르지오 건물84.81㎡,37.3017558325298,126.990841281045
김영배,배우자,건물,아파트(전세(임차)권),서울특별시 성북구 삼선동3가 삼선 SK VIEW 아파트 건물84.94㎡,780000.0,서울특별시 성북구 삼선동,3가 삼선 SK VIEW 아파트 건물84.94㎡,37.5908295073389,127.014651562653
김영식,본인,건물,빌딩(전세(임차)권),"경상북도 구미시 옥계동 거상빌딩 대지 403.45㎡ 건물5,901.16㎡",20000.0,경상북도 구미시 옥계동,"거상빌딩 대지 403.45㎡ 건물5,901.16㎡",36.140882020156,128.419129591913
김영식,본인,건물,아파트(전세(임차)권),경상북도 구미시 산동읍 인덕리 우미린풀하우스 건물101.80㎡ (건물 101.80㎡ 증가),360000.0,경상북도 구미시 산동,읍 인덕리 우미린풀하우스 건물101.80㎡ (건물 101.80㎡ 증가),36.1696724548389,128.434145332359
김영식,본인,건물,아파트(전세(임차)권),경상북도 구미시 옥계동 중흥S클래스 건물 0.00㎡ (건물84.96㎡ 감소),0.0,경상북도 구미시 옥계동,중흥S클래스 건물 0.00㎡ (건물84.96㎡ 감소),36.140882020156,128.419129591913
김영식,배우자,건물,아파트(전세(임차)권),서울특별시 마포구 대흥동 신촌그랑자이 건물 0.00㎡(건물 84.98㎡ 감소),0.0,서울특별시 마포구 대흥동,신촌그랑자이 건물 0.00㎡(건물 84.98㎡ 감소),37.5498936438387,126.943403941965
김영식,배우자,건물,아파트(전세(임차)권),서울특별시 용산구 문배동 용산씨제이나인파크 건물84.98㎡ (건물 84.98㎡ 증가),700000.0,서울특별시 용산구 문배동,용산씨제이나인파크 건물84.98㎡ (건물 84.98㎡ 증가),37.5371018437134,126.969405422634
김영주,본인,건물,사무실(전세(임차)권),서울특별시 영등포구 당산동3가 우미빌딩 건물 84.83㎡,20000.0,서울특별시 영등포구 당산동,3가 우미빌딩 건물 84.83㎡,37.5402584246454,126.902165652703
김영진,본인,건물,아파트(전세(임차)권),경기도 수원시 팔달구 화서동 꽃뫼버들마을 코오롱아파트건물 84.72㎡,300000.0,경기도 수원시 팔달구 화서동,꽃뫼버들마을 코오롱아파트건물 84.72㎡,37.2767576637953,126.994759157061
정태호,배우자,건물,단독주택,"Bridle La. Poughkeepsie NY 12603 대지 1,862.00㎡ 건물167.00㎡",464516.0,,,,
허영,모,건물,단독주택,강원도 양구군 양구읍 상리 건물 194.35㎡,61000.0,강원도 양구군 양구읍 상리,건물 194.35㎡,38.1043607956068,127.981907430982
송기헌,배우자,건물,단독주택,강원도 원주시 소초면 흥양리 대지 918.00㎡ 건물 225.81㎡,293500.0,강원도 원주시 소초면 흥양리,대지 918.00㎡ 건물 225.81㎡,37.3680819413743,128.014079612194
윤주경,본인,건물,단독주택,강원도 평창군 대관령면 수하리 대지 917.00㎡ 중 458.50㎡건물 98.90㎡,27873.0,강원도 평창군 대관령면 수하리,대지 917.00㎡ 중 458.50㎡건물 98.90㎡,37.6311068836177,128.703383640326
송기복,본인,건물,단독주택,강원도 횡성군 갑천면 하대리 건물 81.14㎡,160000.0,강원도 횡성군 갑천면 하대리,건물 81.14㎡,37.5382057438293,128.151837389937
박덕흠,배우자,건물,단독주택,경기도 가평군 청평면 고성리 대지 660.00㎡ 중 330.00㎡건물 375.40㎡ 중 230.00㎡,219400.0,경기도 가평군 청평면 고성리,대지 660.00㎡ 중 330.00㎡건물 375.40㎡ 중 230.00㎡,37.7161355723899,127.496403426322
김학용,본인,건물,단독주택,경기도 안성시 고삼면 월향리 대지 836.00㎡ 건물 101.02㎡,353000.0,경기도 안성시 고삼면 월향리,대지 836.00㎡ 건물 101.02㎡,37.0918287140419,127.28056137015
김학용,장남,건물,단독주택,경기도 안성시 공도읍 승두리 대지 78.14㎡ 건물 127.74㎡,104000.0,경기도 안성시 공도읍 승두리,대지 78.14㎡ 건물 127.74㎡,36.987172511864,127.161605532582
민병덕,본인,건물,단독주택,경기도 안양시 동안구 관양동 대지 257.80㎡ 건물 294.78㎡,1583781.0,경기도 안양시 동안구 관양동,대지 257.80㎡ 건물 294.78㎡,37.4047456704889,126.964638772038
김선교,본인,건물,단독주택,경기도 양평군 옥천면 신복리 대지 297.00㎡ 건물 136.21㎡,112000.0,경기도 양평군 옥천면 신복리,대지 297.00㎡ 건물 136.21㎡,37.5616973384207,127.463631704975
안민석,부,건물,단독주택,경기도 오산시 은계동 대지 248.00㎡ 건물 171.00㎡,200000.0,경기도 오산시 은계동,대지 248.00㎡ 건물 171.00㎡,37.1607310695863,127.07229129899
최강욱,본인,건물,단독주택,경기도 용인시 처인구 양지면 평창리 발트하우스 대지606.00㎡ 건물 180.64㎡,900000.0,경기도 용인시 처인구 양지면 평창리,발트하우스 대지606.00㎡ 건물 180.64㎡,37.226227465961,127.326589849902
송석준,모,건물,단독주택,경기도 이천시 설성면 수산리 대지 205.00㎡ 건물 65.20㎡,22898.0,경기도 이천시 설성면 수산리,대지 205.00㎡ 건물 65.20㎡,37.1349623648416,127.498374817196
박정,본인,건물,단독주택,경기도 파주시 월롱면 덕은리 대지 702.00㎡ 건물 283.79㎡,418000.0,경기도 파주시 월롱면 덕은리,대지 702.00㎡ 건물 283.79㎡,37.8033006351562,126.769765161919
우상호,본인,건물,단독주택,경기도 포천시 일동면 길명리 대지 513.00㎡ 건물 66.30㎡,100000.0,경기도 포천시 일동,면 길명리 대지 513.00㎡ 건물 66.30㎡,37.961275785629,127.317109699824
김영호,모,건물,단독주택,경기도 화성시 남양읍 남양리 건물 61.52㎡,5475.0,경기도 화성시 남양읍 남양리,건물 61.52㎡,37.2022798628144,126.819161541541
김영호,모,건물,단독주택,경기도 화성시 송산면 용포리 대지 154.00㎡ 건물 88.98㎡,69900.0,경기도 화성시 송산면 용포리,대지 154.00㎡ 건물 88.98㎡,37.2283327273846,126.75761078987
문정복,모,건물,단독주택,경기도 화성시 장안면 노진리 건물 70.50㎡,3007.0,경기도 화성시 장안면 노진리,건물 70.50㎡,37.0386351051704,126.81161032692
서일준,모,건물,단독주택,경상남도 거제시 연초면 한내리 건물 86.46㎡,2032.0,경상남도 거제시 연초면 한내리,건물 86.46㎡,34.9322212216641,128.609499158999
김태호,모,건물,단독주택,"경상남도 거창군 가조면 일부리 대지 680.00㎡ 건물 96.00㎡ (대지 680.00㎡ 증가, 건물 96.00㎡ 증가)",101220.0,경상남도 거창군 가조면 일부리,"대지 680.00㎡ 건물 96.00㎡ (대지 680.00㎡ 증가, 건물 96.00㎡ 증가)",35.7095762683938,128.037819813184
김두관,본인,건물,단독주택,경상남도 남해군 고현면 이어리 대지 190.00㎡ 건물59.50㎡,19400.0,경상남도 남해군 고현면 이어리,대지 190.00㎡ 건물59.50㎡,34.8666893034982,127.896356492006
박성중,모,건물,단독주택,경상남도 남해군 서면 중현리 대지 680.00㎡ 건물 154.39㎡,73600.0,경상남도 남해군 서면 중현리,대지 680.00㎡ 건물 154.39㎡,34.8741911380935,127.83787155788
조해진,모,건물,단독주택,경상남도 밀양시 무안면 무안리 대지 102.00㎡ 건물97.52㎡,94600.0,경상남도 밀양시 무안면 무안리,대지 102.00㎡ 건물97.52㎡,35.468468380522,128.659345968595
김형동,부,건물,단독주택,경상북도 안동시 당북동 대지 182.00㎡ 건물 135.60㎡,72700.0,경상북도 안동시 당북동,대지 182.00㎡ 건물 135.60㎡,36.5605503494347,128.718331295217
이만희,본인,건물,단독주택,"경상북도 영천시 고경면 대성리 대지 2,116.00㎡ 건물182.91㎡",127000.0,경상북도 영천시 고경면 대성리,"대지 2,116.00㎡ 건물182.91㎡",35.9569975778846,129.007364509019
박형수,본인,건물,단독주택,경상북도 울진군 평해읍 월송리 대지 608.00㎡ 건물78.36㎡,64100.0,경상북도 울진군 평해읍 월송리,대지 608.00㎡ 건물78.36㎡,36.7374956960367,129.464825080815
임병헌,본인,건물,단독주택,대구광역시 남구 봉덕동 대지 146.50㎡ 건물 312.71㎡,307082.0,대구광역시 남구 봉덕동,대지 146.50㎡ 건물 312.71㎡,35.8455729454257,128.597908299005
김석기,모,건물,단독주택,대구광역시 수성구 범물동 대지 194.00㎡ 건물 181.30㎡,147000.0,대구광역시 수성구 범물동,대지 194.00㎡ 건물 181.30㎡,35.8178791093646,128.645964449875
정동만,본인,건물,단독주택,부산광역시 기장군 일광면 문중리 건물 0.00㎡ (건물0.00㎡ 감소),0.0,부산광역시 기장군 일광면 문중리,건물 0.00㎡ (건물0.00㎡ 감소),35.3033530734462,129.25346167971
정동만,본인,건물,단독주택,부산광역시 기장군 일광읍 문중리 대지 241.00㎡ 건물99.70㎡,283000.0,부산광역시 기장군 일광읍 문중리,대지 241.00㎡ 건물99.70㎡,35.3033530734462,129.25346167971
박상혁,부,건물,단독주택,"서울특별시 강서구 개화동 대지 4,400.00㎡ 중 0.00㎡ 건물97.64㎡",660000.0,서울특별시 강서구 개화동,"대지 4,400.00㎡ 중 0.00㎡ 건물97.64㎡",37.5913312008972,126.810864581737
김홍걸,본인,건물,단독주택,서울특별시 마포구 동교동 건물 0.00㎡ (건물 129.61㎡감소),0.0,서울특별시 마포구 동교동,건물 0.00㎡ (건물 129.61㎡감소),37.557208530833,126.922261659865
김홍걸,본인,건물,단독주택,"서울특별시 마포구 동교동 대지 0.00㎡ 건물 0.00㎡ (대지573.60㎡ 감소, 건물 656.22㎡ 감소)",0.0,서울특별시 마포구 동교동,"대지 0.00㎡ 건물 0.00㎡ (대지573.60㎡ 감소, 건물 656.22㎡ 감소)",37.557208530833,126.922261659865
김용민,본인,건물,단독주택,서울특별시 서대문구 연희동 대지 175.90㎡ 중 87.90㎡건물 81.99㎡ 중 40.95㎡,565000.0,서울특별시 서대문구 연희동,대지 175.90㎡ 중 87.90㎡건물 81.99㎡ 중 40.95㎡,37.573910010416,126.935230751932
김용민,배우자,건물,단독주택,서울특별시 서대문구 연희동 대지 175.90㎡ 중 87.90㎡건물 81.99㎡ 중 40.95㎡,565000.0,서울특별시 서대문구 연희동,대지 175.90㎡ 중 87.90㎡건물 81.99㎡ 중 40.95㎡,37.573910010416,126.935230751932
박성중,배우자,건물,단독주택,"서울특별시 양천구 목동 대지 0.00㎡ 건물 0.00㎡ (대지205.20㎡ 감소, 건물 154.38㎡ 감소)",0.0,서울특별시 양천구 목동,"대지 0.00㎡ 건물 0.00㎡ (대지205.20㎡ 감소, 건물 154.38㎡ 감소)",37.5304364108361,126.870989288343
권인숙,본인,건물,단독주택,서울특별시 종로구 부암동 대지 183.00㎡ 건물 182.38㎡,580000.0,서울특별시 종로구 부암동,대지 183.00㎡ 건물 182.38㎡,37.5924142953538,126.964061015983
김병주,배우자,건물,단독주택,서울특별시 종로구 부암동 대지 99.00㎡ 건물 84.70㎡,308000.0,서울특별시 종로구 부암동,대지 99.00㎡ 건물 84.70㎡,37.5924142953538,126.964061015983
김형동,본인,건물,단독주택,"서울특별시 종로구 옥인동 대지 199.00㎡ 건물 287.00㎡(대지 199.00㎡ 증가, 건물 287.00㎡ 증가)",1570000.0,서울특별시 종로구 옥인동,"대지 199.00㎡ 건물 287.00㎡(대지 199.00㎡ 증가, 건물 287.00㎡ 증가)",37.5835230926996,126.963385995622
서영교,본인,건물,단독주택,서울특별시 중랑구 면목동 대지 126.60㎡ 건물 302.96㎡,274000.0,서울특별시 중랑구 면목동,대지 126.60㎡ 건물 302.96㎡,37.5803715762431,127.087661590766
박홍근,모,건물,단독주택,전라남도 고흥군 도덕면 봉덕리 대지 314.00㎡ 건물104.99㎡,25100.0,전라남도 고흥군 도덕면 봉덕리,대지 314.00㎡ 건물104.99㎡,34.5527511318211,127.190790900544
김승남,부,건물,단독주택,전라남도 고흥군 풍양면 풍남리 대지 294.00㎡ 건물65.90㎡,7120.0,전라남도 고흥군 풍양면 풍남리,대지 294.00㎡ 건물65.90㎡,34.5231164553031,127.256921724759
이학영,본인,건물,단독주택,"전라남도 구례군 토지면 내서리 1동 대지 0.00㎡ 건물 0.00㎡ (대지 367.00㎡ 감소, 건물 107.08㎡ 감소)",0.0,전라남도 구례군 토지면 내서리 1동,"대지 0.00㎡ 건물 0.00㎡ (대지 367.00㎡ 감소, 건물 107.08㎡ 감소)",35.2519582441377,127.58976913187
윤영덕,모,건물,단독주택,전라남도 담양군 용면 월계리 대지 377.00㎡ 중 0.00㎡ 건물85.40㎡,19600.0,전라남도 담양군 용면 월계리,대지 377.00㎡ 중 0.00㎡ 건물85.40㎡,35.4057956840543,127.001378320287
장경태,부,건물,단독주택,전라남도 순천시 저전동 대지 244.80㎡ 건물 72.68㎡,129000.0,전라남도 순천시 저전동,대지 244.80㎡ 건물 72.68㎡,34.9481351636834,127.484084104584
김성환,본인,건물,단독주택,"전라남도 여수시 삼산면 거문리 대지 135.00㎡ 중 16.88㎡건물 73.00㎡ 중 9.13㎡ (대지 지분면적 16.88㎡ 증가, 건물 지분면적 9.13㎡ 증가)",3975.0,전라남도 여수시 삼산면 거문리,"대지 135.00㎡ 중 16.88㎡건물 73.00㎡ 중 9.13㎡ (대지 지분면적 16.88㎡ 증가, 건물 지분면적 9.13㎡ 증가)",34.0265035978194,127.317726153203
김성환,본인,건물,단독주택,"전라남도 여수시 삼산면 거문리 대지 288.00㎡ 중 12.25㎡건물 219.60㎡ 중 27.45㎡ (대지 지분면적 12.25㎡ 증가, 건물 지분면적 27.45㎡ 증가)",5127.0,전라남도 여수시 삼산면 거문리,"대지 288.00㎡ 중 12.25㎡건물 219.60㎡ 중 27.45㎡ (대지 지분면적 12.25㎡ 증가, 건물 지분면적 27.45㎡ 증가)",34.0265035978194,127.317726153203
김회재,부,건물,단독주택,전라남도 여수시 율촌면 취적리 대지 615.00㎡ 건물87.00㎡,37700.0,전라남도 여수시 율촌면 취적리,대지 615.00㎡ 건물87.00㎡,34.8494463120273,127.59419850127
허종식,모,건물,단독주택,전라남도 완도군 군외면 당인리 대지 298.00㎡ 건물103.10㎡,9740.0,전라남도 완도군 군외면 당인리,대지 298.00㎡ 건물103.10㎡,34.3375282918096,126.660840195477
윤재갑,본인,건물,단독주택,전라남도 해남군 해남읍 연동리 대지 443.00㎡ 중 221.50㎡건물 130.43㎡ 중 65.22㎡,95000.0,전라남도 해남군 해남읍 연동,리 대지 443.00㎡ 중 221.50㎡건물 130.43㎡ 중 65.22㎡,34.546440243663,126.610202839972
윤재갑,배우자,건물,단독주택,전라남도 해남군 해남읍 연동리 대지 443.00㎡ 중 221.50㎡건물 130.43㎡ 중 65.22㎡,95000.0,전라남도 해남군 해남읍 연동,리 대지 443.00㎡ 중 221.50㎡건물 130.43㎡ 중 65.22㎡,34.546440243663,126.610202839972
홍영표,본인,건물,단독주택,전라북도 고창군 부안면 오산리 대지 876.00㎡ 중 175.20㎡건물 88.65㎡ 중 17.73㎡,49800.0,전라북도 고창군 부안면 오산리,대지 876.00㎡ 중 175.20㎡건물 88.65㎡ 중 17.73㎡,35.5143909149322,126.664164192743
신영대,모,건물,단독주택,전라북도 군산시 미장동 대지 185.00㎡ 건물 89.40㎡,52800.0,전라북도 군산시 미장동,대지 185.00㎡ 건물 89.40㎡,35.9634861679785,126.728508309344
이원택,모,건물,단독주택,전라북도 김제시 백구면 삼정리 건물 124.00㎡,34900.0,전라북도 김제시 백구면 삼정리,건물 124.00㎡,35.9094072567715,126.945884806508
한병도,본인,건물,단독주택,전라북도 익산시 신용동 대지 388.00㎡ 건물 219.78㎡(대지 388.00㎡ 증가),205000.0,전라북도 익산시 신용동,대지 388.00㎡ 건물 219.78㎡(대지 388.00㎡ 증가),35.9781516196297,126.948658674121
안호영,부,건물,단독주택,전라북도 진안군 동향면 능금리 대지 674.00㎡ 건물143.60㎡,15000.0,전라북도 진안군 동,향면 능금리 대지 674.00㎡ 건물143.60㎡,,
오명호,배우자,건물,단독주택,제주특별자치도 제주시 일도일동 대지 288.00㎡ 중72.00㎡ 건물 135.53㎡ 중 33.88㎡,63250.0,제주특별자치도 제주시 일도일동,대지 288.00㎡ 중72.00㎡ 건물 135.53㎡ 중 33.88㎡,33.5150737360447,126.526342790761
어기구,부,건물,단독주택,충청남도 당진시 송악읍 고대리 대지 938.00㎡ 건물189.00㎡,259000.0,충청남도 당진시 송악읍 고대리,대지 938.00㎡ 건물189.00㎡,36.9766172979847,126.750060085071
채수근,모,건물,단독주택,충청남도 당진시 신평면 남산리 건물 42.00㎡,10000.0,충청남도 당진시 신평면 남산리,건물 42.00㎡,36.8701593526775,126.770007381407
장동혁,본인,건물,단독주택,충청남도 보령시 웅천읍 대창리 대지 767.00㎡ 건물71.00㎡,28800.0,충청남도 보령시 웅천읍 대창리,대지 767.00㎡ 건물71.00㎡,36.2149219282439,126.592467131356
진선희,부,건물,단독주택,"충청남도 서천군 비인면 남당리 대지 625.00㎡ 건물 62.70㎡ (대지 625.00㎡ 증가, 건물 62.70㎡ 증가)",17800.0,충청남도 서천군 비인면 남당리,"대지 625.00㎡ 건물 62.70㎡ (대지 625.00㎡ 증가, 건물 62.70㎡ 증가)",36.1648209019937,126.627380187432
임호선,장남,건물,단독주택,충청북도 진천군 초평면 은암리 건물 174.53㎡,106283.0,충청북도 진천군 초평면 은암리,건물 174.53㎡,36.7914771924088,127.520551908922
이광재,부,건물,단독주택,충청북도 충주시 소태면 주치리 건물 99.87㎡,114000.0,충청북도 충주시 소태면 주치리,건물 99.87㎡,37.1461860133711,127.86840099404
김용민,본인,건물,근린생활시설(전세(임차)권),"경기도 남양주시 다산동 강산타워 건물 1,148.90㎡ 중266.83㎡",51000.0,경기도 남양주시 다산동,"강산타워 건물 1,148.90㎡ 중266.83㎡",37.613445683167,127.159444527968
김용민,본인,건물,사무실(전세(임차)권),경기도 남양주시 다산동 백석빌딩 건물 0.00㎡ (건물194.54㎡ 감소),0.0,경기도 남양주시 다산동,백석빌딩 건물 0.00㎡ (건물194.54㎡ 감소),37.613445683167,127.159444527968
김용민,배우자,건물,아파트(전세(임차)권),경기도 남양주시 다산동 플루리움 건물 162.45㎡,460000.0,경기도 남양주시 다산동,플루리움 건물 162.45㎡,37.613445683167,127.159444527968
김용판,본인,건물,사무실(전세(임차)권),대구광역시 달서구 본동 그린빌딩 건물 221.85㎡,10000.0,대구광역시 달서구 본동,그린빌딩 건물 221.85㎡,35.8344421692017,128.541046504677
김용판,배우자,건물,아파트(전세(임차)권),대구광역시 달서구 송현동 청구그린맨션1차아파트 건물150.84㎡,405000.0,대구광역시 달서구 송현동,청구그린맨션1차아파트 건물150.84㎡,35.8293738401133,128.553382094845
김용판,본인,건물,오피스텔(전세(임차)권),서울특별시 영등포구 당산동4가 코오롱 스타폴리스 건물64.00㎡,40000.0,서울특별시 영등포구 당산동,4가 코오롱 스타폴리스 건물64.00㎡,37.5402584246454,126.902165652703
김웅,본인,건물,아파트(전세(임차)권),서울특별시 송파구 신천동 파크리오 건물 84.79㎡,1230000.0,서울특별시 송파구 신천동,파크리오 건물 84.79㎡,37.5182926381798,127.101366591012
김원이,본인,건물,사무실(전세(임차)권),전라남도 목포시 상동 포르모큐브 건물 170.00㎡,30000.0,전라남도 목포시 상동,포르모큐브 건물 170.00㎡,34.8137773511389,126.41416731379
김원이,배우자,건물,아파트(전세(임차)권),전라남도 목포시 석현동 서희스타힐스 건물 0.00㎡ (건물59.00㎡ 감소),0.0,전라남도 목포시 석현동,서희스타힐스 건물 0.00㎡ (건물59.00㎡ 감소),34.8244020215185,126.423020388534
김원이,배우자,건물,아파트(전세(임차)권),전라남도 목포시 석현동 서희스타힐스 건물 95.00㎡ (건물95.00㎡ 증가),210000.0,전라남도 목포시 석현동,서희스타힐스 건물 95.00㎡ (건물95.00㎡ 증가),34.8244020215185,126.423020388534
김윤덕,본인,건물,다세대주택(전세(임차)권),서울특별시 영등포구 당산동 건물 0.00㎡ (건물 73.78㎡감소),0.0,서울특별시 영등포구 당산동,건물 0.00㎡ (건물 73.78㎡감소),37.5402584246454,126.902165652703
김윤덕,장녀,건물,아파트(전세(임차)권),서울특별시 영등포구 영등포동7가 경남아너스빌 건물59.90㎡ (건물 59.90㎡ 증가),550000.0,서울특별시 영등포구 영등포동,7가 경남아너스빌 건물59.90㎡ (건물 59.90㎡ 증가),37.5134118222975,126.906168599588
김윤덕,본인,건물,오피스텔(전세(임차)권),서울특별시 영등포구 영등포동7가 토방트윈빌 건물23.49㎡ (건물 23.49㎡ 증가),5000.0,서울특별시 영등포구 영등포동,7가 토방트윈빌 건물23.49㎡ (건물 23.49㎡ 증가),37.5134118222975,126.906168599588
김의겸,차녀,건물,오피스텔(전세(임차)권),"강원도 원주시 일산동 두진하트리움시티 대지 0.00㎡ 중0.00㎡건물 0.00㎡ 중 0.00㎡ (대지 지분면적 6.67㎡ 감소, 건물 지분면적 24.27㎡ 감소)",0.0,강원도 원주시 일산동,"두진하트리움시티 대지 0.00㎡ 중0.00㎡건물 0.00㎡ 중 0.00㎡ (대지 지분면적 6.67㎡ 감소, 건물 지분면적 24.27㎡ 감소)",37.3496550364151,127.942147953591
채수근,배우자,건물,복합건물(주택+상가),경기도 김포시 하성면 전류리 건물 232.72㎡,235000.0,경기도 김포시 하성면 전류리,건물 232.72㎡,37.6978952073239,126.657196713222
양정숙,본인,건물,복합건물(주택+상가),경기도 부천시 심곡동 대지 238.30㎡ 중 59.58㎡ 건물466.80㎡ 중 116.70㎡,362216.0,경기도 부천시 심곡동,대지 238.30㎡ 중 59.58㎡ 건물466.80㎡ 중 116.70㎡,37.4911478996839,126.78385709779
윤주경,본인,건물,복합건물(주택+상가),경기도 성남시 분당구 야탑동 대지 232.10㎡ 건물 433.49㎡,1361455.0,경기도 성남시 분당구 야탑동,대지 232.10㎡ 건물 433.49㎡,37.4120856880186,127.130167470751
박수영,본인,건물,복합건물(주택+상가),경기도 수원시 영통구 원천동 대지 271.20㎡ 중 135.60㎡건물 487.58㎡ 중 234.84㎡,890000.0,경기도 수원시 영통구 원천동,대지 271.20㎡ 중 135.60㎡건물 487.58㎡ 중 234.84㎡,37.2734624286598,127.053213432207
박수영,배우자,건물,복합건물(주택+상가),경기도 수원시 영통구 원천동 대지 271.20㎡ 중 135.60㎡건물 487.58㎡ 중 234.84㎡,890000.0,경기도 수원시 영통구 원천동,대지 271.20㎡ 중 135.60㎡건물 487.58㎡ 중 234.84㎡,37.2734624286598,127.053213432207
박태형,배우자,건물,복합건물(주택+상가),경기도 하남시 망월동 대지 264.10㎡ 중 132.05㎡ 건물494.95㎡ 중 247.47㎡,1100000.0,경기도 하남시 망월동,대지 264.10㎡ 중 132.05㎡ 건물494.95㎡ 중 247.47㎡,37.5680994614327,127.189475097868
박태형,본인,건물,복합건물(주택+상가),경기도 하남시 망월동 대지 264.10㎡ 중 132.05㎡ 건물494.95㎡ 중 247.48㎡,1100000.0,경기도 하남시 망월동,대지 264.10㎡ 중 132.05㎡ 건물494.95㎡ 중 247.48㎡,37.5680994614327,127.189475097868
이상민,배우자,건물,복합건물(주택+상가),경기도 화성시 반송동 대지 227.80㎡ 건물 581.66㎡,838922.0,경기도 화성시 반송동,대지 227.80㎡ 건물 581.66㎡,37.1934918316945,127.074876988386
이주환,본인,건물,복합건물(주택+상가),"부산광역시 부산진구 부전동 대지 302.80㎡ 중 90.84㎡건물 1,037.40㎡ 중 311.22㎡",582119.0,부산광역시 부산진구 부전동,"대지 302.80㎡ 중 90.84㎡건물 1,037.40㎡ 중 311.22㎡",35.1561936023553,129.058076204432
하태경,모,건물,복합건물(주택+상가),부산광역시 해운대구 반송동 반송시장 건물 6.51㎡,1567.0,부산광역시 해운대구 반송동,반송시장 건물 6.51㎡,35.2189368500509,129.154119351895
하태경,모,건물,복합건물(주택+상가),부산광역시 해운대구 반송동 반송시장 건물 6.61㎡,1269.0,부산광역시 해운대구 반송동,반송시장 건물 6.61㎡,35.2189368500509,129.154119351895
하태경,모,건물,복합건물(주택+상가),부산광역시 해운대구 반송동 반송시장 건물 6.61㎡,1269.0,부산광역시 해운대구 반송동,반송시장 건물 6.61㎡,35.2189368500509,129.154119351895
윤관석,배우자,건물,복합건물(주택+상가),"서울특별시 강남구 삼성동 셔우드 대지 0.00㎡ 건물 0.00㎡ 중 0.00㎡ (대지 22.12㎡ 감소, 건물 총면적 90.51㎡ 감소,지분면적 54.30㎡ 감소)",0.0,서울특별시 강남구 삼성동,"셔우드 대지 0.00㎡ 건물 0.00㎡ 중 0.00㎡ (대지 22.12㎡ 감소, 건물 총면적 90.51㎡ 감소,지분면적 54.30㎡ 감소)",37.514322572329,127.062831022499
정희용,본인,건물,복합건물(주택+상가),서울특별시 성동구 송정동 대지 152.00㎡ 중 76.00㎡ 건물159.14㎡ 중 79.57㎡,517868.0,서울특별시 성동구 송정동,대지 152.00㎡ 중 76.00㎡ 건물159.14㎡ 중 79.57㎡,37.5545322586261,127.069569072089
정희용,배우자,건물,복합건물(주택+상가),서울특별시 성동구 송정동 대지 152.00㎡ 중 76.00㎡ 건물159.14㎡ 중 79.62㎡,517868.0,서울특별시 성동구 송정동,대지 152.00㎡ 중 76.00㎡ 건물159.14㎡ 중 79.62㎡,37.5545322586261,127.069569072089
김영선,본인,건물,복합건물(주택+상가),서울특별시 영등포구 당산동1가 건물 338.12㎡,3258800.0,서울특별시 영등포구 당산동,1가 건물 338.12㎡,37.5402584246454,126.902165652703
조은희,배우자,건물,복합건물(주택+상가),"서울특별시 은평구 대조동 주주베비 건물 1,357.00㎡ 중13.53㎡",48225.0,서울특별시 은평구 대조동,"주주베비 건물 1,357.00㎡ 중13.53㎡",37.6141899645266,126.920825111083
조은희,배우자,건물,복합건물(주택+상가),"서울특별시 은평구 대조동 주주베비 건물 1,357.00㎡ 중27.01㎡",206904.0,서울특별시 은평구 대조동,"주주베비 건물 1,357.00㎡ 중27.01㎡",37.6141899645266,126.920825111083
조은희,배우자,건물,복합건물(주택+상가),"서울특별시 은평구 대조동 주주베비 건물 1,357.00㎡ 중44.98㎡",158190.0,서울특별시 은평구 대조동,"주주베비 건물 1,357.00㎡ 중44.98㎡",37.6141899645266,126.920825111083
조은희,배우자,건물,복합건물(주택+상가),"서울특별시 은평구 대조동 주주베비 건물 1,357.00㎡ 중44.98㎡",158190.0,서울특별시 은평구 대조동,"주주베비 건물 1,357.00㎡ 중44.98㎡",37.6141899645266,126.920825111083
조은희,배우자,건물,복합건물(주택+상가),"서울특별시 은평구 대조동 주주베비 건물 1,357.00㎡ 중51.92㎡",182592.0,서울특별시 은평구 대조동,"주주베비 건물 1,357.00㎡ 중51.92㎡",37.6141899645266,126.920825111083
조은희,배우자,건물,복합건물(주택+상가),"서울특별시 은평구 대조동 주주베비 건물 1,357.00㎡ 중51.92㎡",182592.0,서울특별시 은평구 대조동,"주주베비 건물 1,357.00㎡ 중51.92㎡",37.6141899645266,126.920825111083
조은희,배우자,건물,복합건물(주택+상가),"서울특별시 은평구 대조동 주주베비 건물 1,357.00㎡ 중52.38㎡",186718.0,서울특별시 은평구 대조동,"주주베비 건물 1,357.00㎡ 중52.38㎡",37.6141899645266,126.920825111083
조은희,배우자,건물,복합건물(주택+상가),서울특별시 은평구 대조동 주주베비 건물 44.51㎡,145390.0,서울특별시 은평구 대조동,주주베비 건물 44.51㎡,37.6141899645266,126.920825111083
이광재,배우자,건물,복합건물(주택+상가),서울특별시 종로구 부암동 대지 399.00㎡ 건물 469.04㎡,1097590.0,서울특별시 종로구 부암동,대지 399.00㎡ 건물 469.04㎡,37.5924142953538,126.964061015983
맹성규,본인,건물,복합건물(주택+상가),"인천광역시 중구 답동 대지 0.00㎡ 중 0.00㎡건물 0.00㎡ 중 0.00㎡ (대지 지분면적 44.60㎡ 감소, 건물 지분면적146.60㎡ 감소)",0.0,인천광역시 중구 답동,"대지 0.00㎡ 중 0.00㎡건물 0.00㎡ 중 0.00㎡ (대지 지분면적 44.60㎡ 감소, 건물 지분면적146.60㎡ 감소)",37.4703689164196,126.629303625267
맹성규,배우자,건물,복합건물(주택+상가),"인천광역시 중구 답동 대지 89.30㎡ 중 89.20㎡ 건물293.37㎡ 중 293.20㎡ (대지 지분면적 44.60㎡ 증가, 건물 지분면적 146.60㎡ 증가)",250000.0,인천광역시 중구 답동,"대지 89.30㎡ 중 89.20㎡ 건물293.37㎡ 중 293.20㎡ (대지 지분면적 44.60㎡ 증가, 건물 지분면적 146.60㎡ 증가)",37.4703689164196,126.629303625267
문진석,본인,건물,복합건물(주택+상가),"충청남도 아산시 배방읍 장재리 빅토리아빌 대지 0.00㎡ 건물 0.00㎡ (대지 12.53㎡ 감소, 건물 72.00㎡ 감소)",0.0,충청남도 아산시 배방읍 장재리 빅토리,"아빌 대지 0.00㎡ 건물 0.00㎡ (대지 12.53㎡ 감소, 건물 72.00㎡ 감소)",,
김일권,본인,건물,아파트(전세(임차)권),서울특별시 영등포구 여의도동 삼부아파트 건물 132.00㎡(건물 132.00㎡ 증가),100000.0,서울특별시 영등포구 여의도동,삼부아파트 건물 132.00㎡(건물 132.00㎡ 증가),37.5267849150832,126.930167091136
김일권,본인,건물,아파트(전세(임차)권),서울특별시 영등포구 여의도동 한양아파트 건물 0.00㎡(건물 214.90㎡ 감소),0.0,서울특별시 영등포구 여의도동,한양아파트 건물 0.00㎡(건물 214.90㎡ 감소),37.5267849150832,126.930167091136
김정재,본인,건물,사무실(전세(임차)권),경상북도 포항시 북구 장성동 이레빌딩 건물 188.00㎡,30000.0,경상북도 포항시 북구 장성동,이레빌딩 건물 188.00㎡,36.0776923888175,129.37305257029
김정호,장남,건물,다가구주택(전세(임차)권),서울특별시 중구 예장동 건물 25.00㎡,20000.0,서울특별시 중구 예장동,건물 25.00㎡,37.5552118678547,126.990086044965
김정호,본인,건물,사무실(전세(임차)권),경상남도 김해시 대청동 유토피아 건물 198.63㎡,20000.0,경상남도 김해시 대청동,유토피아 건물 198.63㎡,35.1858248254189,128.776430469211
김종민,모,건물,다세대주택(전세(임차)권),서울특별시 관악구 봉천동 건물 66.00㎡,5100.0,서울특별시 관악구 봉천동,건물 66.00㎡,37.482538491727,126.952165181187
김종민,배우자,건물,아파트(전세(임차)권),경기도 성남시 분당구 이매동 이매촌 한신아파트 건물66.27㎡,500000.0,경기도 성남시 분당구 이매동,이매촌 한신아파트 건물66.27㎡,37.3995791810404,127.127177813535
윤주경,본인,건물,빌딩,서울특별시 구로구 가리봉동 대지 271.40㎡ 중 8.22㎡ 건물 779.00㎡ 중 23.60㎡,75454.0,서울특별시 구로구 가리봉동,대지 271.40㎡ 중 8.22㎡ 건물 779.00㎡ 중 23.60㎡,37.4825327471338,126.889718085071
박정,본인,건물,빌딩,"서울특별시 마포구 상암동 트루텍빌딩 대지 2,077.90㎡건물 19,816.49㎡",40218438.0,서울특별시 마포구 상암동,"트루텍빌딩 대지 2,077.90㎡건물 19,816.49㎡",37.5783209050878,126.894689433213
김종민,배우자,건물,아파트(전세(임차)권),충청남도 논산시 내동 제이파크 건물 84.97㎡,140000.0,충청남도 논산시 내동,제이파크 건물 84.97㎡,36.1831501570603,127.102607132355
김주영,본인,건물,사무실(전세(임차)권),"경기도 김포시 사우동 보보스프라자 대지 1,053.00㎡ 건물102.32㎡",10000.0,경기도 김포시 사우동,"보보스프라자 대지 1,053.00㎡ 건물102.32㎡",37.6193581588087,126.716738801056
김주영,본인,건물,아파트(전세(임차)권),경기도 김포시 장기동 한강센트럴자이 1단지 건물 0.00㎡(건물 84.97㎡ 감소),0.0,경기도 김포시 장기동,한강센트럴자이 1단지 건물 0.00㎡(건물 84.97㎡ 감소),37.6397252396072,126.671359353779
김주영,본인,건물,아파트(전세(임차)권),경기도 김포시 장기동 한강센트럴자이1단지 건물 70.86㎡(건물 70.86㎡ 증가),350000.0,경기도 김포시 장기동,한강센트럴자이1단지 건물 70.86㎡(건물 70.86㎡ 증가),37.6397252396072,126.671359353779
김진표,배우자,건물,아파트(전세(임차)권),경기도 수원시 팔달구 우만동 월드메르디앙 아파트 건물189.95㎡,483000.0,경기도 수원시 팔달구 우만동,월드메르디앙 아파트 건물189.95㎡,37.2853104025746,127.029391735447
정성호,본인,건물,사무실,경기도 의정부시 가능동 법전빌딩 대지 30.26㎡ 건물65.70㎡,110323.0,경기도 의정부시 가능동,법전빌딩 대지 30.26㎡ 건물65.70㎡,37.7506435264154,127.038616105186
윤관석,배우자,건물,사무실,"서울특별시 강남구 삼성동 셔우드 대지 22.12㎡ 중 0.00㎡건물 90.51㎡ 중 54.30㎡ (대지 지분면적 0.00㎡ 증가, 건물 지분면적 54.30㎡ 증가)",331371.0,서울특별시 강남구 삼성동,"셔우드 대지 22.12㎡ 중 0.00㎡건물 90.51㎡ 중 54.30㎡ (대지 지분면적 0.00㎡ 증가, 건물 지분면적 54.30㎡ 증가)",37.514322572329,127.062831022499
이탄희,배우자,건물,사무실,서울특별시 송파구 문정동 문정역테라타워 건물 126.44㎡,845063.0,서울특별시 송파구 문정동,문정역테라타워 건물 126.44㎡,37.4847415034154,127.118267660547
배준영,본인,건물,사무실,서울특별시 영등포구 여의도동 건물 117.86㎡,268120.0,서울특별시 영등포구 여의도동,건물 117.86㎡,37.5267849150832,126.930167091136
배준영,본인,건물,사무실,서울특별시 영등포구 여의도동 건물 117.86㎡ 중 50.51㎡,119199.0,서울특별시 영등포구 여의도동,건물 117.86㎡ 중 50.51㎡,37.5267849150832,126.930167091136
배준영,본인,건물,사무실,서울특별시 영등포구 여의도동 건물 119.42㎡,271573.0,서울특별시 영등포구 여의도동,건물 119.42㎡,37.5267849150832,126.930167091136
배준영,본인,건물,사무실,서울특별시 영등포구 여의도동 건물 119.42㎡ 중 59.71㎡,136128.0,서울특별시 영등포구 여의도동,건물 119.42㎡ 중 59.71㎡,37.5267849150832,126.930167091136
배준영,본인,건물,사무실,서울특별시 영등포구 여의도동 건물 121.30㎡ (건물116.00㎡ 감소),540831.0,서울특별시 영등포구 여의도동,건물 121.30㎡ (건물116.00㎡ 감소),37.5267849150832,126.930167091136
배준영,본인,건물,사무실,서울특별시 영등포구 여의도동 건물 127.19㎡,327038.0,서울특별시 영등포구 여의도동,건물 127.19㎡,37.5267849150832,126.930167091136
배준영,본인,건물,사무실,서울특별시 영등포구 여의도동 건물 63.17㎡,143786.0,서울특별시 영등포구 여의도동,건물 63.17㎡,37.5267849150832,126.930167091136
배준영,본인,건물,사무실,서울특별시 영등포구 여의도동 건물 91.78㎡,209364.0,서울특별시 영등포구 여의도동,건물 91.78㎡,37.5267849150832,126.930167091136
배준영,본인,건물,사무실,서울특별시 영등포구 여의도동 건물 92.91㎡,211321.0,서울특별시 영등포구 여의도동,건물 92.91㎡,37.5267849150832,126.930167091136
배준영,본인,건물,사무실,서울특별시 영등포구 여의도동 건물 92.91㎡,206295.0,서울특별시 영등포구 여의도동,건물 92.91㎡,37.5267849150832,126.930167091136
배준영,본인,건물,사무실,서울특별시 영등포구 여의도동 건물 94.51㎡,215492.0,서울특별시 영등포구 여의도동,건물 94.51㎡,37.5267849150832,126.930167091136
배준영,배우자,건물,사무실,서울특별시 영등포구 여의도동 건물 94.51㎡ 중 15.75㎡,35000.0,서울특별시 영등포구 여의도동,건물 94.51㎡ 중 15.75㎡,37.5267849150832,126.930167091136
문진석,배우자,건물,사무실,충청남도 아산시 배방읍 장재리 펜타폴리스 오피스텔 대지7.06㎡ 건물 42.94㎡,348000.0,충청남도 아산시 배방읍 장재리 펜타폴리,스 오피스텔 대지7.06㎡ 건물 42.94㎡,,
문진석,배우자,건물,사무실,충청남도 아산시 배방읍 장재리 펜타폴리스오피스텔 대지7.11㎡ 건물 43.29㎡,348000.0,충청남도 아산시 배방읍 장재리 펜타폴리,스오피스텔 대지7.11㎡ 건물 43.29㎡,,
김철민,본인,건물,근린생활시설(전세(임차)권),경기도 안산시 상록구 성포동 건물 98.40㎡,15000.0,경기도 안산시 상록구 성포동,건물 98.40㎡,37.3206794365657,126.849429968393
김철민,배우자,건물,아파트(전세(임차)권),"경기도 안산시 상록구 이동 푸르지오2차아파트 건물30,732.00㎡ 중 151.00㎡",80000.0,경기도 안산시 상록구 이동,"푸르지오2차아파트 건물30,732.00㎡ 중 151.00㎡",37.3054407225328,126.860857418137
김태년,본인,건물,사무실(전세(임차)권),경기도 성남시 수정구 태평동 흥국생명 건물 221.49㎡(건물 221.49㎡ 증가),30000.0,경기도 성남시 수정구 태평동,흥국생명 건물 221.49㎡(건물 221.49㎡ 증가),37.440818231851,127.125991008174
김태호,본인,건물,사무실(전세(임차)권),경상남도 거창군 거창읍 송정리 건물 134.00㎡,20000.0,경상남도 거창군 거창읍 송정리,건물 134.00㎡,35.6802465913144,127.894526552248
김태호,배우자,건물,아파트(전세(임차)권),경상남도 거창군 거창읍 송정리 푸르지오아파트 건물84.96㎡,70000.0,경상남도 거창군 거창읍 송정리,푸르지오아파트 건물84.96㎡,35.6802465913144,127.894526552248
김학용,차녀,건물,다가구주택(전세(임차)권),전라남도 나주시 대호동 동신하이빌 건물 46.00㎡,5000.0,전라남도 나주시 대호동 동,신하이빌 건물 46.00㎡,,
김학용,장남,건물,다가구주택(전세(임차)권),충청남도 천안시 동남구 병천면 가전리 꿈이있는집 건물0.00㎡ (건물 31.28㎡ 감소),0.0,충청남도 천안시 동,남구 병천면 가전리 꿈이있는집 건물0.00㎡ (건물 31.28㎡ 감소),,
김학용,본인,건물,사무실(전세(임차)권),경기도 안성시 봉산동 대지 155.84㎡ 건물 155.84㎡,30000.0,경기도 안성시 봉산동,대지 155.84㎡ 건물 155.84㎡,37.0067480356923,127.278122636742
김학용,본인,건물,사무실(전세(임차)권),"경기도 안성시 석정동 만금프라자 대지 751.80㎡ 건물 378.00㎡ (대지 751.80㎡ 증가, 건물 378.00㎡ 증가)",50000.0,경기도 안성시 석정동,"만금프라자 대지 751.80㎡ 건물 378.00㎡ (대지 751.80㎡ 증가, 건물 378.00㎡ 증가)",37.0105261632674,127.261925107123
김학용,본인,건물,아파트(전세(임차)권),경기도 안성시 금산동 삼부 건물 84.90㎡,140000.0,경기도 안성시 금산동,삼부 건물 84.90㎡,37.012401587235,127.267855306192
김학용,장녀,건물,오피스텔(전세(임차)권),서울특별시 마포구 아현동 효성인텔리안 건물 21.90㎡,30000.0,서울특별시 마포구 아현동,효성인텔리안 건물 21.90㎡,37.5544832516732,126.955903701632
김한규,본인,건물,사무실(전세(임차)권),서울특별시 강남구 대치동 삼현빌딩 건물 0.00㎡ (건물36.30㎡ 감소),0.0,서울특별시 강남구 대치동,삼현빌딩 건물 0.00㎡ (건물36.30㎡ 감소),37.4932421505467,127.056693501258
김한규,본인,건물,사무실(전세(임차)권),"제주특별자치도 제주시 이도이동 더스프링 건물 481.90㎡ 중 304.81㎡ (건물 총면적 481.90㎡ 증가, 지분면적304.81㎡ 증가)",50000.0,제주특별자치도 제주시 이도이동,"더스프링 건물 481.90㎡ 중 304.81㎡ (건물 총면적 481.90㎡ 증가, 지분면적304.81㎡ 증가)",33.4970469392194,126.535290947589
김회재,본인,건물,사무실(전세(임차)권),전라남도 여수시 신기동 대지 998.58㎡ 건물 190.68㎡,1000.0,전라남도 여수시 신기동,대지 998.58㎡ 건물 190.68㎡,34.7584835251092,127.673390911413
김회재,본인,건물,아파트(전세(임차)권),전라남도 여수시 소라면 죽림리 죽림 양우내안애아파트건물 74.69㎡,220000.0,전라남도 여수시 소라면 죽림리,죽림 양우내안애아파트건물 74.69㎡,34.7644841292068,127.631504568558
김희곤,본인,건물,오피스텔(전세(임차)권),서울특별시 영등포구 당산동 리오팰리스 건물 33.79㎡,5000.0,서울특별시 영등포구 당산동,리오팰리스 건물 33.79㎡,37.5402584246454,126.902165652703
김희국,본인,건물,사무실(전세(임차)권),경상북도 영덕군 영덕읍 남석리 송치과 건물 166.05㎡,40000.0,경상북도 영덕군 영덕읍 남석리,송치과 건물 166.05㎡,36.4078888651393,129.36611015187
김희국,본인,건물,사무실(전세(임차)권),경상북도 의성군 의성읍 후죽리 건물 56.33㎡,20000.0,경상북도 의성군 의성읍 후죽리,건물 56.33㎡,36.3651428541795,128.694611445385
남인순,본인,건물,아파트(전세(임차)권),서울특별시 송파구 거여동 e편한세상 송파 파크센트럴건물 59.96㎡,740000.0,서울특별시 송파구 거여동,e편한세상 송파 파크센트럴건물 59.96㎡,37.4969242257406,127.143310298223
노용호,본인,건물,근린생활시설(전세(임차)권),강원도 춘천시 퇴계동 남춘천역코아루웰라움타워애비뉴상가동 건물 76.01㎡ (건물 76.01㎡ 증가),20000.0,강원도 춘천시 퇴계동 남춘천역코아루웰라움타워애비뉴상가동,건물 76.01㎡ (건물 76.01㎡ 증가),,
노용호,부,건물,다세대주택(전세(임차)권),강원도 강릉시 사천면 사기막리 건물 27.97㎡,300.0,강원도 강릉시 사천면 사기막리,건물 27.97㎡,37.774263504103,128.767672936402
노우진,배우자,건물,근린생활시설(전세(임차)권),"서울특별시 용산구 산천동 삼성테마트 건물 3,460.00㎡ 중20.57㎡",10000.0,서울특별시 용산구 산천동,"삼성테마트 건물 3,460.00㎡ 중20.57㎡",37.535416505796,126.951801048783
노우진,차녀,건물,연립주택(전세(임차)권),"서울특별시 마포구 합정동 건우빌라 건물 0.00㎡ 중 0.00㎡ (건물 총면적 250.00㎡ 감소, 지분면적 25.00㎡ 감소)",0.0,서울특별시 마포구 합정동,"건우빌라 건물 0.00㎡ 중 0.00㎡ (건물 총면적 250.00㎡ 감소, 지분면적 25.00㎡ 감소)",37.5516618139959,126.911756414276
노웅래,본인,건물,근린생활시설(전세(임차)권),서울특별시 마포구 대흥동 건물 475.72㎡ 중 118.93㎡,20000.0,서울특별시 마포구 대흥동,건물 475.72㎡ 중 118.93㎡,37.5498936438387,126.943403941965
도종환,배우자,건물,아파트(전세(임차)권),서울특별시 마포구 마포동 강변한신코아아파트 건물83.16㎡,350000.0,서울특별시 마포구 마포동,강변한신코아아파트 건물83.16㎡,37.5371140702001,126.943825451904
류성걸,본인,건물,사무실(전세(임차)권),대구광역시 동구 신암동 건물 164.74㎡,50000.0,대구광역시 동구 신암동,건물 164.74㎡,35.8842737864276,128.616332122198
류성걸,본인,건물,오피스텔(전세(임차)권),서울특별시 영등포구 여의도동 건물 47.54㎡,10000.0,서울특별시 영등포구 여의도동,건물 47.54㎡,37.5267849150832,126.930167091136
류호정,본인,건물,아파트(전세(임차)권),경기도 성남시 분당구 야탑동 장미마을 동부코오롱 아파트건물 59.76㎡,250000.0,경기도 성남시 분당구 야탑동 장미마을 동,부코오롱 아파트건물 59.76㎡,,
맹성규,본인,건물,근린생활시설(전세(임차)권),인천광역시 남동구 구월동 대진빌딩 대지 330.10㎡ 건물206.79㎡,30000.0,인천광역시 남동구 구월동,대진빌딩 대지 330.10㎡ 건물206.79㎡,37.4493320894429,126.713525152911
맹성규,배우자,건물,아파트(전세(임차)권),인천광역시 남동구 구월동 구월아시아드선수촌센트럴자이 건물 101.93㎡,445000.0,인천광역시 남동구 구월동,구월아시아드선수촌센트럴자이 건물 101.93㎡,37.4493320894429,126.713525152911
맹성규,모,건물,아파트(전세(임차)권),인천광역시 동구 송현동 솔빛마을주공아파트 건물 46.92㎡,30000.0,인천광역시 동구 송현동,솔빛마을주공아파트 건물 46.92㎡,37.4889408638872,126.641120648772
문진석,장남,건물,다세대주택(전세(임차)권),"서울특별시 관악구 신림동 대지 0.00㎡ 건물 0.00㎡ (대지19.11㎡ 감소, 건물 262.80㎡ 감소)",0.0,서울특별시 관악구 신림동,"대지 0.00㎡ 건물 0.00㎡ (대지19.11㎡ 감소, 건물 262.80㎡ 감소)",37.4874127684412,126.927123713685
민병덕,모,건물,다가구주택(전세(임차)권),서울특별시 영등포구 신길동 건물 70.00㎡,130000.0,서울특별시 영등포구 신길동,건물 70.00㎡,37.5041663202169,126.91406973946
민병덕,본인,건물,사무실(전세(임차)권),경기도 안양시 동안구 관양동 건물 115.00㎡,10000.0,경기도 안양시 동안구 관양동,건물 115.00㎡,37.4047456704889,126.964638772038
민형배,배우자,건물,오피스텔(전세(임차)권),서울특별시 용산구 한강로2가 래미안용산 더 센트럴 건물47.65㎡,409500.0,서울특별시 용산구 한강로2가,래미안용산 더 센트럴 건물47.65㎡,37.5315623013378,126.968683607087
민홍철,본인,건물,근린생활시설(전세(임차)권),경상남도 김해시 삼계동 삼계위너스타운 건물 0.00㎡(건물 167.72㎡ 감소),0.0,경상남도 김해시 삼계동,삼계위너스타운 건물 0.00㎡(건물 167.72㎡ 감소),35.2707706209913,128.86607071872
민홍철,본인,건물,사무실(전세(임차)권),경상남도 김해시 삼계동 삼계위너스타운 건물 159.87㎡(건물 159.87㎡ 증가),10000.0,경상남도 김해시 삼계동,삼계위너스타운 건물 159.87㎡(건물 159.87㎡ 증가),35.2707706209913,128.86607071872
민홍철,본인,건물,아파트(전세(임차)권),경상남도 김해시 삼계동 화정마을 부영2차아파트 건물84.98㎡,165000.0,경상남도 김해시 삼계동,화정마을 부영2차아파트 건물84.98㎡,35.2707706209913,128.86607071872
민홍철,배우자,건물,아파트(전세(임차)권),서울특별시 영등포구 당산동5가 당산센트럴아이파크 건물106.29㎡,840000.0,서울특별시 영등포구 당산동,5가 당산센트럴아이파크 건물106.29㎡,37.5402584246454,126.902165652703
박광온,본인,건물,사무실(전세(임차)권),경기도 수원시 영통구 원천동 성민프라자 건물 200.33㎡,30000.0,경기도 수원시 영통구 원천동,성민프라자 건물 200.33㎡,37.2734624286598,127.053213432207
박광온,배우자,건물,아파트(전세(임차)권),경기도 수원시 영통구 원천동 광교아이파크 건물 506.52㎡(건물 506.52㎡ 증가),870000.0,경기도 수원시 영통구 원천동,광교아이파크 건물 506.52㎡(건물 506.52㎡ 증가),37.2734624286598,127.053213432207
박광온,배우자,건물,아파트(전세(임차)권),경기도 수원시 영통구 하동 광교 더샵 레이크파크 건물0.00㎡ (건물 84.96㎡ 감소),0.0,경기도 수원시 영통구 하동,광교 더샵 레이크파크 건물0.00㎡ (건물 84.96㎡ 감소),37.2899942604676,127.074128958987
박대수,모,건물,다가구주택(전세(임차)권),서울특별시 용산구 원효로1가 건물 53.38㎡,240000.0,서울특별시 용산구 원효로1가,건물 53.38㎡,37.539613202648,126.967064466585
박대수,본인,건물,아파트(전세(임차)권),서울특별시 구로구 신도림동 신도림2차동아아파트 건물84.90㎡ (건물 84.90㎡ 증가),700000.0,서울특별시 구로구 신도림동 신도림2차동,아아파트 건물84.90㎡ (건물 84.90㎡ 증가),,
박대출,본인,건물,사무실(전세(임차)권),경상남도 진주시 인사동 건물 42.00㎡,20000.0,경상남도 진주시 인사동,건물 42.00㎡,35.191363655428,128.074410290631
박대출,본인,건물,아파트(전세(임차)권),경상남도 진주시 평거동 들말대경아파트 건물 59.60㎡,70000.0,경상남도 진주시 평거동,들말대경아파트 건물 59.60㎡,35.1738211142887,128.065384700633
박덕흠,본인,건물,근린생활시설(전세(임차)권),충청북도 옥천군 옥천읍 금구리 대지 379.36㎡ 건물487.43㎡ 중 305.48㎡,50000.0,충청북도 옥천군 옥천읍 금구리,대지 379.36㎡ 건물487.43㎡ 중 305.48㎡,36.2998667105418,127.571573230541
박덕흠,본인,건물,상가(전세(임차)권),충청북도 괴산군 괴산읍 동부리 대지 452.80㎡ 건물153.00㎡,50000.0,충청북도 괴산군 괴산읍 동,부리 대지 452.80㎡ 건물153.00㎡,,
박덕흠,본인,건물,상가(전세(임차)권),충청북도 보은군 보은읍 교사리 건물 230.00㎡,400000.0,충청북도 보은군 보은읍 교사리,건물 230.00㎡,36.4935903541807,127.714783402436
박덕흠,배우자,건물,아파트(전세(임차)권),서울특별시 송파구 잠실동 아시아선수촌아파트 건물384.55㎡,200000.0,서울특별시 송파구 잠실동,아시아선수촌아파트 건물384.55㎡,37.5119564733933,127.088282780728
박덕흠,본인,건물,아파트(전세(임차)권),충청북도 옥천군 옥천읍 금구리 옥천계룡리슈빌 건물84.98㎡,210000.0,충청북도 옥천군 옥천읍 금구리 옥천계룡리,슈빌 건물84.98㎡,,
박범계,본인,건물,상가(전세(임차)권),"대전광역시 서구 월평동 한미빌딩 건물 1,524.73㎡ 중145.20㎡",60000.0,대전광역시 서구 월평동,"한미빌딩 건물 1,524.73㎡ 중145.20㎡",36.3546931857663,127.357608933166
박범계,본인,건물,아파트(전세(임차)권),"서울특별시 서초구 서초동 더샾서초 건물 0.00㎡ (건물15,552.60㎡ 감소)",0.0,서울특별시 서초구 서초동,"더샾서초 건물 0.00㎡ (건물15,552.60㎡ 감소)",37.4900861966504,127.01953478052
박범계,본인,건물,오피스텔(전세(임차)권),서울특별시 영등포구 영등포동8가 리마크빌 영등포 건물25.34㎡ (건물 25.34㎡ 증가),10000.0,서울특별시 영등포구 영등포동,8가 리마크빌 영등포 건물25.34㎡ (건물 25.34㎡ 증가),37.5134118222975,126.906168599588
박병석,본인,건물,사무실(전세(임차)권),대전광역시 서구 도마동 건물 132.00㎡,30000.0,대전광역시 서구 도마동,건물 132.00㎡,36.3160391986021,127.38115530131
박병석,본인,건물,아파트(전세(임차)권),서울특별시 용산구 이촌동 타워맨션 건물 202.45㎡,1400000.0,서울특별시 용산구 이촌동,타워맨션 건물 202.45㎡,37.5141954312251,126.972097769518
박상혁,본인,건물,상가(전세(임차)권),경기도 김포시 구래동 한강신도시 반도유보라 4차 대지41.65㎡ 건물 84.25㎡,40000.0,경기도 김포시 구래동,한강신도시 반도유보라 4차 대지41.65㎡ 건물 84.25㎡,37.6464770568314,126.623671091844
박상혁,배우자,건물,아파트(전세(임차)권),경기도 김포시 운양동 풍경마을 래미안 한강2차 건물91.20㎡,239400.0,경기도 김포시 운양동,풍경마을 래미안 한강2차 건물91.20㎡,37.6513367527863,126.683097821946
박성민,본인,건물,오피스텔(전세(임차)권),서울특별시 영등포구 영등포동8가 리마크빌 영등포 건물0.00㎡ (건물 77.33㎡ 감소),0.0,서울특별시 영등포구 영등포동,8가 리마크빌 영등포 건물0.00㎡ (건물 77.33㎡ 감소),37.5134118222975,126.906168599588
박성민,본인,건물,오피스텔(전세(임차)권),서울특별시 영등포구 영등포동8가 리마크빌 영등포 건물100.73㎡ (건물 100.73㎡ 증가),15000.0,서울특별시 영등포구 영등포동,8가 리마크빌 영등포 건물100.73㎡ (건물 100.73㎡ 증가),37.5134118222975,126.906168599588
박성준,본인,건물,사무실(전세(임차)권),"서울특별시 중구 신당동 자이언트빌딩 건물 680.34㎡ 중288.09㎡ (건물 총면적 680.34㎡ 증가, 지분면적 288.09㎡ 증가)",50000.0,서울특별시 중구 신당동,"자이언트빌딩 건물 680.34㎡ 중288.09㎡ (건물 총면적 680.34㎡ 증가, 지분면적 288.09㎡ 증가)",37.5620157313145,127.014442188261
박성준,본인,건물,오피스텔(전세(임차)권),서울특별시 중구 만리동2가 KCC 파크타운 대지 27.39㎡건물 66.47㎡ (대지 39.08㎡ 감소),100000.0,서울특별시 중구 만리동,2가 KCC 파크타운 대지 27.39㎡건물 66.47㎡ (대지 39.08㎡ 감소),37.5561628100871,126.967288060049
박성중,배우자,건물,아파트(전세(임차)권),서울특별시 서초구 방배동 래미안방배아트힐 건물124.61㎡ (건물 124.61㎡ 증가),1500000.0,서울특별시 서초구 방배동,래미안방배아트힐 건물124.61㎡ (건물 124.61㎡ 증가),37.483413014657,126.994486969319
박성중,배우자,건물,아파트(전세(임차)권),서울특별시 서초구 방배동 신동아럭스빌 건물 0.00㎡(건물 164.43㎡ 감소),0.0,서울특별시 서초구 방배동 신동,아럭스빌 건물 0.00㎡(건물 164.43㎡ 감소),,
박성중,배우자,건물,오피스텔(전세(임차)권),서울특별시 용산구 한강로2가 한강현대하이엘 건물41.80㎡,230000.0,서울특별시 용산구 한강로2가,한강현대하이엘 건물41.80㎡,37.5315623013378,126.968683607087
박수영,본인,건물,아파트(전세(임차)권),부산광역시 남구 대연동 대연롯데캐슬레전드 건물 84.95㎡,200000.0,부산광역시 남구 대연동,대연롯데캐슬레전드 건물 84.95㎡,35.1378939446187,129.09146973801
박영순,장남,건물,다가구주택(전세(임차)권),"서울특별시 관악구 봉천동 대지 1,171.35㎡ 건물 19.60㎡ (대지 1,171.35㎡ 증가, 건물 19.60㎡ 증가)",59000.0,서울특별시 관악구 봉천동,"대지 1,171.35㎡ 건물 19.60㎡ (대지 1,171.35㎡ 증가, 건물 19.60㎡ 증가)",37.482538491727,126.952165181187
박영순,차남,건물,다가구주택(전세(임차)권),"서울특별시 성북구 안암동1가 대지 546.33㎡ 건물 25.00㎡(대지 546.33㎡ 증가, 건물 25.00㎡ 증가)",72000.0,서울특별시 성북구 안암동,"1가 대지 546.33㎡ 건물 25.00㎡(대지 546.33㎡ 증가, 건물 25.00㎡ 증가)",37.5858189680129,127.021344106907
박영순,장녀,건물,단독주택(전세(임차)권),서울특별시 관악구 봉천동 대지 152.00㎡ 건물 38.26㎡,170000.0,서울특별시 관악구 봉천동,대지 152.00㎡ 건물 38.26㎡,37.482538491727,126.952165181187
박완주,본인,건물,근린생활시설(전세(임차)권),충청남도 천안시 서북구 백석동천안미래에이스하이테크시티 건물 145.56㎡,50000.0,충청남도 천안시 서북구 백석동,천안미래에이스하이테크시티 건물 145.56㎡,36.8197488923036,127.115111448507
박완주,장남,건물,아파트(전세(임차)권),세종특별자치시 고운동 가락마을8단지 건물 74.00㎡,280000.0,세종특별자치시 고운동,가락마을8단지 건물 74.00㎡,36.5241551273918,127.237632940381
박완주,본인,건물,오피스텔(전세(임차)권),서울특별시 영등포구 영등포동8가 리마크빌 영등포 건물0.00㎡ (건물 27.28㎡ 감소),0.0,서울특별시 영등포구 영등포동,8가 리마크빌 영등포 건물0.00㎡ (건물 27.28㎡ 감소),37.5134118222975,126.906168599588
박용진,본인,건물,복합건물(주택+상가)(전세(임차)권),서울특별시 강북구 미아동 건물 132.00㎡,40000.0,서울특별시 강북구 미아동,건물 132.00㎡,37.6270831294022,127.027060776679
박재유,장남,건물,단독주택(전세(임차)권),서울특별시 관악구 신림동 건물 18.00㎡,120000.0,서울특별시 관악구 신림동,건물 18.00㎡,37.4874127684412,126.927123713685
박재유,본인,건물,아파트(전세(임차)권),경기도 시흥시 능곡동 신일해피트리아파트 건물 107.25㎡,470000.0,경기도 시흥시 능곡동,신일해피트리아파트 건물 107.25㎡,37.3663067920925,126.815783853779
박재호,본인,건물,사무실(전세(임차)권),"부산광역시 남구 대연동 박재호사무소 대지 128.93㎡ 건물 370.91㎡ (대지 128.93㎡ 증가, 건물 370.91㎡ 증가)",40000.0,부산광역시 남구 대연동,"박재호사무소 대지 128.93㎡ 건물 370.91㎡ (대지 128.93㎡ 증가, 건물 370.91㎡ 증가)",35.1378939446187,129.09146973801
박재호,본인,건물,상가(전세(임차)권),부산광역시 남구 용호동 엘지메트로시티 건물 0.00㎡(건물 119.57㎡ 감소),0.0,부산광역시 남구 용호동,엘지메트로시티 건물 0.00㎡(건물 119.57㎡ 감소),35.1139656623746,129.116007443618
박재호,본인,건물,아파트(전세(임차)권),부산광역시 남구 용호동 엘지메트로시티 건물 84.98㎡,20000.0,부산광역시 남구 용호동,엘지메트로시티 건물 84.98㎡,35.1139656623746,129.116007443618
박재호,본인,건물,아파트(전세(임차)권),서울특별시 영등포구 영등포동7가 아크로타워스퀘어 건물98.00㎡,640500.0,서울특별시 영등포구 영등포동,7가 아크로타워스퀘어 건물98.00㎡,37.5134118222975,126.906168599588
박정,본인,건물,사무실(전세(임차)권),경기도 파주시 금촌동 엠에이치타워 건물 14.65㎡,30000.0,경기도 파주시 금촌동,엠에이치타워 건물 14.65㎡,37.7606436758235,126.768817063648
박정하,본인,건물,사무실(전세(임차)권),강원도 원주시 학성동 삼아빌딩 건물 198.00㎡ (건물198.00㎡ 증가),10000.0,강원도 원주시 학성동,삼아빌딩 건물 198.00㎡ (건물198.00㎡ 증가),37.3535203041358,127.944182694542
박주민,본인,건물,사무실(전세(임차)권),서울특별시 은평구 응암동 건물 210.00㎡,30000.0,서울특별시 은평구 응암동,건물 210.00㎡,37.5963272964127,126.924109745075
박주민,본인,건물,아파트(전세(임차)권),서울특별시 은평구 녹번동 래미안베라힐즈 건물 0.00㎡(건물 114.99㎡ 감소),0.0,서울특별시 은평구 녹번동,래미안베라힐즈 건물 0.00㎡(건물 114.99㎡ 감소),37.6022161609652,126.929919982801
박주민,본인,건물,아파트(전세(임차)권),서울특별시 은평구 증산동 DMC센트럴자이 건물 84.92㎡(건물 84.92㎡ 증가),700000.0,서울특별시 은평구 증산동,DMC센트럴자이 건물 84.92㎡(건물 84.92㎡ 증가),37.5843030609175,126.907039772766
박찬대,배우자,건물,근린생활시설(전세(임차)권),"인천광역시 연수구 청학동 이리옴프라자 대지 1,710.10㎡건물 122.23㎡",10000.0,인천광역시 연수구 청학동,"이리옴프라자 대지 1,710.10㎡건물 122.23㎡",37.4250030076557,126.666158794496
박찬대,본인,건물,사무실(전세(임차)권),인천광역시 연수구 연수동 아시스타워 건물 46.67㎡,10000.0,인천광역시 연수구 연수동,아시스타워 건물 46.67㎡,37.42221249729,126.681481155615
박찬대,본인,건물,오피스텔(전세(임차)권),서울특별시 영등포구 여의도동 민족통일 대통령 리빙텔건물 0.00㎡ (건물 21.60㎡ 감소),0.0,서울특별시 영등포구 여의도동,민족통일 대통령 리빙텔건물 0.00㎡ (건물 21.60㎡ 감소),37.5267849150832,126.930167091136
박형수,본인,건물,사무실(전세(임차)권),경상북도 영양군 영양읍 서부리 건물 97.30㎡,5000.0,경상북도 영양군 영양읍 서부리,건물 97.30㎡,36.6673603621738,129.098154857696
박형수,본인,건물,사무실(전세(임차)권),경상북도 영주시 가흥동 건물 304.57㎡,5000.0,경상북도 영주시 가흥동,건물 304.57㎡,36.8187367258628,128.617947430843
박형수,본인,건물,사무실(전세(임차)권),경상북도 울진군 울진읍 읍내리 건물 181.50㎡,50000.0,경상북도 울진군 울진읍 읍내리,건물 181.50㎡,36.9950767618479,129.402569926674
박형수,본인,건물,아파트(전세(임차)권),경상북도 영주시 휴천동 남산현대아파트 건물 59.76㎡,10000.0,경상북도 영주시 휴천동,남산현대아파트 건물 59.76㎡,36.8184871176095,128.629888428889
박홍근,본인,건물,사무실(전세(임차)권),서울특별시 중랑구 중화동 건물 198.30㎡,50000.0,서울특별시 중랑구 중화동,건물 198.30㎡,37.5994618167452,127.077320262185
배준영,본인,건물,사무실(전세(임차)권),인천광역시 중구 신흥동2가 건물 91.23㎡ (건물 91.23㎡증가),10000.0,인천광역시 중구 신흥동,2가 건물 91.23㎡ (건물 91.23㎡증가),37.467655580462,126.634087322909
배준영,본인,건물,아파트(전세(임차)권),인천광역시 중구 신흥동3가 신흥아이파크 건물 0.00㎡(건물 114.94㎡ 감소),0.0,인천광역시 중구 신흥동,3가 신흥아이파크 건물 0.00㎡(건물 114.94㎡ 감소),37.467655580462,126.634087322909
배준영,본인,건물,아파트(전세(임차)권),인천광역시 중구 운서동 운서sk뷰 스카이시티 건물84.96㎡ (건물 84.96㎡ 증가),270000.0,인천광역시 중구 운서동,운서sk뷰 스카이시티 건물84.96㎡ (건물 84.96㎡ 증가),37.493329881789,126.48834389365
배준영,배우자,건물,오피스텔(전세(임차)권),경기도 부천시 중동 솔라리움B동 건물 0.00㎡ (건물54.02㎡ 감소),0.0,경기도 부천시 중동 솔라리움B동,건물 0.00㎡ (건물54.02㎡ 감소),,
배준영,배우자,건물,오피스텔(전세(임차)권),경기도 부천시 중동 힐스테이트 중동 건물 84.83㎡ (건물84.83㎡ 증가),400000.0,경기도 부천시 중동 힐스테이트 중동,건물 84.83㎡ (건물84.83㎡ 증가),,
배진교,모,건물,아파트(전세(임차)권),인천광역시 남동구 서창동 서창lh(임대) 건물 36.00㎡,8014.0,인천광역시 남동구 서창동,서창lh(임대) 건물 36.00㎡,37.4328373664367,126.750535160559
배현진,본인,건물,사무실(전세(임차)권),서울특별시 송파구 삼전동 젠코아빌딩 건물 90.00㎡,15000.0,서울특별시 송파구 삼전동,젠코아빌딩 건물 90.00㎡,37.5027233386059,127.092519707191
배현진,본인,건물,아파트(전세(임차)권),서울특별시 송파구 잠실동 리센츠 건물 27.68㎡,29400.0,서울특별시 송파구 잠실동,리센츠 건물 27.68㎡,37.5119564733933,127.088282780728
백종헌,장녀,건물,오피스텔(전세(임차)권),서울특별시 영등포구 영등포동8가 리마크빌 영등포 건물27.28㎡,10000.0,서울특별시 영등포구 영등포동,8가 리마크빌 영등포 건물27.28㎡,37.5134118222975,126.906168599588
백종헌,본인,건물,오피스텔(전세(임차)권),서울특별시 영등포구 영등포동8가 리마크빌 영등포 건물35.03㎡,15000.0,서울특별시 영등포구 영등포동,8가 리마크빌 영등포 건물35.03㎡,37.5134118222975,126.906168599588
백혜련,배우자,건물,아파트(전세(임차)권),경기도 수원시 권선구 금곡동 금곡엘지아파트 건물173.00㎡,350000.0,경기도 수원시 권선구 금곡동,금곡엘지아파트 건물173.00㎡,37.2727944144458,126.952325262645
백혜련,모,건물,아파트(전세(임차)권),경기도 수원시 권선구 금곡동 금곡엘지아파트 건물59.99㎡,250000.0,경기도 수원시 권선구 금곡동,금곡엘지아파트 건물59.99㎡,37.2727944144458,126.952325262645
변재일,본인,건물,아파트(전세(임차)권),충청북도 청주시 청원구 오창읍 각리 대우이안아파트 건물119.30㎡,260000.0,충청북도 청주시 청원구 오창읍 각리,대우이안아파트 건물119.30㎡,36.7052908521156,127.426446367618
서동용,본인,건물,근린생활시설(전세(임차)권),전라남도 광양시 중동 대지 196.88㎡ 건물 196.88㎡,20000.0,전라남도 광양시 중동,대지 196.88㎡ 건물 196.88㎡,34.9413564618825,127.692602226428
서동용,배우자,건물,아파트(전세(임차)권),경기도 의왕시 내손동 삼성래미안아파트 건물 79.21㎡,365000.0,경기도 의왕시 내손동,삼성래미안아파트 건물 79.21㎡,37.3782619969627,126.975693472476
서동용,차남,건물,연립주택(전세(임차)권),"서울특별시 서대문구 북가좌동 케이타운Ⅱ 대지 131.60㎡ 중 23.14㎡ 건물 286.51㎡ 중 23.14㎡ (대지 지분면적 23.14㎡ 증가, 건물 지분면적 23.14㎡ 증가)",30000.0,서울특별시 서대문구 북가좌동,"케이타운Ⅱ 대지 131.60㎡ 중 23.14㎡ 건물 286.51㎡ 중 23.14㎡ (대지 지분면적 23.14㎡ 증가, 건물 지분면적 23.14㎡ 증가)",37.5780815956199,126.91039845202
서범수,본인,건물,사무실(전세(임차)권),울산광역시 울주군 범서읍 굴화리 인재빌딩 건물 116.34㎡,40000.0,울산광역시 울주군 범서읍 굴화리,인재빌딩 건물 116.34㎡,35.5494305499793,129.241241964465
서범수,배우자,건물,아파트(전세(임차)권),부산광역시 남구 용호동 더블유 건물 0.00㎡ (건물133.07㎡ 감소),0.0,부산광역시 남구 용호동,더블유 건물 0.00㎡ (건물133.07㎡ 감소),35.1139656623746,129.116007443618
서범수,본인,건물,아파트(전세(임차)권),울산광역시 울주군 범서읍 구영리 구영2차푸르지오 건물84.84㎡,50000.0,울산광역시 울주군 범서읍 구영리,구영2차푸르지오 건물84.84㎡,35.581619570833,129.250380682939
서병수,본인,건물,사무실(전세(임차)권),부산광역시 부산진구 연지동 덕인디오네빌 건물 173.00㎡,20000.0,부산광역시 부산진구 연지동,덕인디오네빌 건물 173.00㎡,35.1727845612254,129.052840043371
서병수,배우자,건물,아파트(전세(임차)권),서울특별시 서대문구 남가좌동 디엠씨엘가 건물 30.36㎡,50000.0,서울특별시 서대문구 남가좌동,디엠씨엘가 건물 30.36㎡,37.5755473825403,126.919548350676
서삼석,배우자,건물,아파트(전세(임차)권),전라남도 무안군 무안읍 성남리 대선해시앙 아파트 건물63.11㎡,30000.0,전라남도 무안군 무안읍 성남리,대선해시앙 아파트 건물63.11㎡,34.9760617597752,126.474733611746
서삼석,장남,건물,오피스텔(전세(임차)권),서울특별시 성동구 사근동 어반큐브 건물 0.00㎡ (건물17.81㎡ 감소),0.0,서울특별시 성동구 사근동,어반큐브 건물 0.00㎡ (건물17.81㎡ 감소),37.5614997515695,127.045327331714
서영교,배우자,건물,근린생활시설(전세(임차)권),서울특별시 중랑구 면목동 건물 59.09㎡,30000.0,서울특별시 중랑구 면목동,건물 59.09㎡,37.5803715762431,127.087661590766
서영교,장녀,건물,오피스텔(전세(임차)권),서울특별시 종로구 경운동 운현궁 에스케이 허브 건물35.36㎡ (건물 35.36㎡ 증가),100000.0,서울특별시 종로구 경운동,운현궁 에스케이 허브 건물35.36㎡ (건물 35.36㎡ 증가),37.5751883855305,126.98638391579
서영교,본인,건물,오피스텔(전세(임차)권),서울특별시 중랑구 면목동 금호오피스 대지 284.60㎡ 건물133.74㎡,30000.0,서울특별시 중랑구 면목동,금호오피스 대지 284.60㎡ 건물133.74㎡,37.5803715762431,127.087661590766
서일준,본인,건물,사무실(전세(임차)권),경상남도 거제시 상동동 건물 257.00㎡ (건물 257.00㎡증가),20000.0,경상남도 거제시 상동동,건물 257.00㎡ (건물 257.00㎡증가),34.8637016588006,128.630679488969
서일준,본인,건물,아파트(전세(임차)권),경상남도 거제시 고현동 덕산베스트타운 건물 74.08㎡,5000.0,경상남도 거제시 고현동,덕산베스트타운 건물 74.08㎡,34.8825546407982,128.623264616435
성일종,본인,건물,사무실(전세(임차)권),충청남도 서산시 읍내동 건물 165.30㎡,100000.0,충청남도 서산시 읍내동,건물 165.30㎡,36.7803905921218,126.445284654664
소병철,본인,건물,사무실(전세(임차)권),전라남도 순천시 조례동 건물 145.86㎡,20000.0,전라남도 순천시 조례동,건물 145.86㎡,34.9600665563215,127.53052047668
소병철,배우자,건물,아파트(전세(임차)권),전라남도 순천시 조례동 금호아파트 건물 70.66㎡,178500.0,전라남도 순천시 조례동,금호아파트 건물 70.66㎡,34.9600665563215,127.53052047668
소병훈,본인,건물,사무실(전세(임차)권),경기도 광주시 탄벌동 세양빌딩 건물 120.60㎡,30000.0,경기도 광주시 탄벌동,세양빌딩 건물 120.60㎡,37.4196823992846,127.246095404439
소병훈,배우자,건물,사무실(전세(임차)권),서울특별시 은평구 대조동 건물 98.86㎡,20000.0,서울특별시 은평구 대조동,건물 98.86㎡,37.6141899645266,126.920825111083
송갑석,본인,건물,오피스텔(전세(임차)권),서울특별시 마포구 도화동 SK허브그린 건물 41.48㎡ (건물41.48㎡ 증가),10000.0,서울특별시 마포구 도화동,SK허브그린 건물 41.48㎡ (건물41.48㎡ 증가),37.541549712387,126.949873511116
송갑석,본인,건물,오피스텔(전세(임차)권),서울특별시 마포구 도화동 에스케이허브그린 건물 0.00㎡(건물 38.51㎡ 감소),0.0,서울특별시 마포구 도화동,에스케이허브그린 건물 0.00㎡(건물 38.51㎡ 감소),37.541549712387,126.949873511116
송기헌,본인,건물,사무실(전세(임차)권),강원도 원주시 단구동 건물 238.50㎡,20000.0,강원도 원주시 단구동,건물 238.50㎡,37.3260979360228,127.960253120692
송병철,배우자,건물,아파트(전세(임차)권),서울특별시 강남구 압구정동 한양아파트 건물 0.00㎡(건물 106.22㎡ 감소),0.0,서울특별시 강남구 압구정동,한양아파트 건물 0.00㎡(건물 106.22㎡ 감소),37.5306686414269,127.030809170421
송석준,장남,건물,다세대주택(전세(임차)권),"경기도 이천시 창전동 드림파크 대지 0.00㎡ 건물 0.00㎡(대지 214.00㎡ 감소, 건물 17.70㎡ 감소)",0.0,경기도 이천시 창전동,"드림파크 대지 0.00㎡ 건물 0.00㎡(대지 214.00㎡ 감소, 건물 17.70㎡ 감소)",37.2829062004195,127.441145005564
송석준,본인,건물,아파트(전세(임차)권),경기도 이천시 증포동 증포동한솔솔파크 건물 117.22㎡,220000.0,경기도 이천시 증포동 증포동,한솔솔파크 건물 117.22㎡,37.2903815684334,127.452493133317
송언석,본인,건물,아파트(전세(임차)권),경상북도 김천시 율곡동 엠코타운더플래닛 건물 112.40㎡,199500.0,경상북도 김천시 율곡동,엠코타운더플래닛 건물 112.40㎡,36.1214163346642,128.183708300022
송언석,배우자,건물,아파트(전세(임차)권),서울특별시 서초구 방배동 방배롯데캐슬아르떼 건물147.72㎡,1650000.0,서울특별시 서초구 방배동,방배롯데캐슬아르떼 건물147.72㎡,37.483413014657,126.994486969319
송옥주,본인,건물,사무실(전세(임차)권),경기도 화성시 향남읍 하길리 연세메디칼프라자 대지64.65㎡ 건물 206.10㎡,30000.0,경기도 화성시 향남읍 하길리,연세메디칼프라자 대지64.65㎡ 건물 206.10㎡,37.0980753993793,126.91759472881
송옥주,본인,건물,아파트(전세(임차)권),경기도 화성시 향남읍 행정리향남시범넓은들마을향남지웰2차아파트 건물 84.84㎡,278000.0,경기도 화성시 향남읍 행정리,향남시범넓은들마을향남지웰2차아파트 건물 84.84㎡,37.1263762465698,126.929042249826
송재호,본인,건물,근린생활시설(전세(임차)권),제주특별자치도 제주시 도평동 건물 137.30㎡,20000.0,제주특별자치도 제주시 도평동,건물 137.30㎡,33.4788622652271,126.451176230271
송재호,본인,건물,다세대주택(전세(임차)권),서울특별시 종로구 구기동 한솔리더빌3차 건물 304.00㎡(건물 304.00㎡ 증가),10000.0,서울특별시 종로구 구기동,한솔리더빌3차 건물 304.00㎡(건물 304.00㎡ 증가),37.6193739703885,126.959299756836
송재호,본인,건물,오피스텔(전세(임차)권),"서울특별시 영등포구 여의도동 여의도금호리첸시아 건물 0.00㎡ 중 0.00㎡ (건물 총면적 6,944.00㎡ 감소, 지분면적59.66㎡ 감소)",0.0,서울특별시 영등포구 여의도동,"여의도금호리첸시아 건물 0.00㎡ 중 0.00㎡ (건물 총면적 6,944.00㎡ 감소, 지분면적59.66㎡ 감소)",37.5267849150832,126.930167091136
신동근,본인,건물,근린생활시설(전세(임차)권),인천광역시 서구 마전동 완정빌딩 건물 147.30㎡,30000.0,인천광역시 서구 마전동,완정빌딩 건물 147.30㎡,37.5953744773207,126.673701407057
신동근,장남,건물,다세대주택(전세(임차)권),서울특별시 양천구 신정동 예지팰리스85차 건물 29.78㎡(건물 29.78㎡ 증가),30000.0,서울특별시 양천구 신정동,예지팰리스85차 건물 29.78㎡(건물 29.78㎡ 증가),37.5185526780281,126.854354325392
윤호중,배우자,건물,상가,경기도 구리시 인창동 쌍용플래티넘선스타워 대지 12.20㎡건물 85.95㎡,470000.0,경기도 구리시 인창동,쌍용플래티넘선스타워 대지 12.20㎡건물 85.95㎡,37.6044843983227,127.13492316761
김병욱(경기 성남시분당구을),본인,건물,상가,경기도 남양주시 호평동 CH리베로1 대지 0.16㎡ 중 0.02㎡건물 0.90㎡ 중 0.14㎡,450.0,경기도 남양주시 호평동,CH리베로1 대지 0.16㎡ 중 0.02㎡건물 0.90㎡ 중 0.14㎡,37.6548880029094,127.248669169781
박장호,모,건물,상가,경기도 부천시 상동 뉴코아중동백화점 대지 1.00㎡ 건물3.92㎡,70000.0,경기도 부천시 상동 뉴코아중동,백화점 대지 1.00㎡ 건물3.92㎡,,
박장호,모,건물,상가,경기도 부천시 상동 뉴코아중동백화점 대지 1.08㎡ 건물3.50㎡,35000.0,경기도 부천시 상동 뉴코아중동,백화점 대지 1.08㎡ 건물3.50㎡,,
박장호,모,건물,상가,경기도 부천시 상동 뉴코아중동백화점 대지 1.17㎡ 건물3.80㎡,35000.0,경기도 부천시 상동 뉴코아중동,백화점 대지 1.17㎡ 건물3.80㎡,,
윤호중,본인,건물,상가,"경기도 부천시 오정구 원종동 부천프라자 대지 3.23㎡ 건물1,814.57㎡ 중 7.87㎡",16606.0,경기도 부천시 오정구 원종동,"부천프라자 대지 3.23㎡ 건물1,814.57㎡ 중 7.87㎡",37.5259638814999,126.805278275373
조기열,배우자,건물,상가,경기도 안양시 동안구 호계동 샘마을쌍용아파트 상가동대지 12.00㎡ 건물 13.33㎡,50000.0,경기도 안양시 동안구 호계동 샘마을쌍용아파트 상가동,대지 12.00㎡ 건물 13.33㎡,,
최영희,본인,건물,상가,경기도 의정부시 신곡동 우정프라자 대지 51.60㎡ 건물243.97㎡,485801.0,경기도 의정부시 신곡동,우정프라자 대지 51.60㎡ 건물243.97㎡,37.7314238778054,127.056847377285
박재유,모,건물,상가,경기도 의정부시 장암동 장암2단지주공아파트 건물41.80㎡,130000.0,경기도 의정부시 장암동,장암2단지주공아파트 건물41.80㎡,37.7263976740224,127.054270875497
이철규,배우자,건물,상가,경기도 평택시 고덕면 여염리 우성메디컬센터 대지11.73㎡ 건물 98.14㎡,1608900.0,경기도 평택시 고덕면 여염리,우성메디컬센터 대지11.73㎡ 건물 98.14㎡,37.0244927822524,127.052472875568
이철규,배우자,건물,상가,경기도 하남시 학암동 위례메디프라자 대지 61.22㎡ 건물180.20㎡ (대지 942.78㎡ 감소),1383200.0,경기도 하남시 학암동,위례메디프라자 대지 61.22㎡ 건물180.20㎡ (대지 942.78㎡ 감소),37.4785745414962,127.166501723578
권은희,배우자,건물,상가,경기도 화성시 반송동 동탄 위버폴리스 대지 20.69㎡ 건물100.82㎡,428675.0,경기도 화성시 반송동 동,탄 위버폴리스 대지 20.69㎡ 건물100.82㎡,,
권은희,배우자,건물,상가,"경기도 화성시 반송동 동탄 위버폴리스 대지 5,560.00㎡중 7.12㎡ 건물 34.90㎡ 중 34.88㎡",153384.0,경기도 화성시 반송동 동,"탄 위버폴리스 대지 5,560.00㎡중 7.12㎡ 건물 34.90㎡ 중 34.88㎡",,
권은희,배우자,건물,상가,"경기도 화성시 반송동 동탄 위버폴리스 대지 5,560.00㎡중 7.18㎡ 건물 35.15㎡",154634.0,경기도 화성시 반송동 동,"탄 위버폴리스 대지 5,560.00㎡중 7.18㎡ 건물 35.15㎡",,
이원욱,본인,건물,상가,경기도 화성시 병점동 리더스플라자 대지 11.03㎡ 건물71.28㎡,185254.0,경기도 화성시 병점동,리더스플라자 대지 11.03㎡ 건물71.28㎡,37.2069172825447,127.037269392114
강기윤,본인,건물,상가,경상남도 창원시 성산구 대방동 골든프라자 대지 26.50㎡건물 125.30㎡,147532.0,경상남도 창원시 성산구 대방동,골든프라자 대지 26.50㎡건물 125.30㎡,35.2110861914908,128.718083708009
송언석,본인,건물,상가,경상북도 김천시 평화동 대지 130.60㎡ 중 43.53㎡ 건물346.37㎡ 중 115.46㎡,157920.0,경상북도 김천시 평화동,대지 130.60㎡ 중 43.53㎡ 건물346.37㎡ 중 115.46㎡,36.1258033507157,128.113394372442
이명수,배우자,건물,상가,"대전광역시 유성구 봉명동 대지 1,472.00㎡ 중 368.00㎡건물 261.00㎡ 중 130.00㎡",1288830.0,대전광역시 유성구 봉명동,"대지 1,472.00㎡ 중 368.00㎡건물 261.00㎡ 중 130.00㎡",36.3549114724545,127.345907414374
장제원,본인,건물,상가,부산광역시 해운대구 우동 해운대아이파크 대지 24.30㎡건물 149.99㎡,1488220.0,부산광역시 해운대구 우동,해운대아이파크 대지 24.30㎡건물 149.99㎡,35.1727271517264,129.148399576019
장제원,본인,건물,상가,부산광역시 해운대구광역시 우동 해운대아이파크 건물0.00㎡ (건물 0.00㎡ 감소),0.0,부산광역시 해운대구광역시 우동,해운대아이파크 건물0.00㎡ (건물 0.00㎡ 감소),,
박형수,배우자,건물,상가,서울특별시 강남구 역삼동 대지 24.96㎡ 중 8.32㎡ 건물49.05㎡ 중 16.35㎡,159361.0,서울특별시 강남구 역삼동,대지 24.96㎡ 중 8.32㎡ 건물49.05㎡ 중 16.35㎡,37.4953666908089,127.03306536185
박재유,모,건물,상가,서울특별시 광진구 구의동 구의동현대2단지 건물 49.86㎡,420000.0,서울특별시 광진구 구의동 구의동,현대2단지 건물 49.86㎡,37.5502741239803,127.093135225891
이철규,배우자,건물,상가,"서울특별시 광진구 구의동 테크노-마트21 대지 0.00㎡ 건물 0.00㎡ (대지 2.99㎡ 감소, 건물 35.27㎡ 감소)",0.0,서울특별시 광진구 구의동,"테크노-마트21 대지 0.00㎡ 건물 0.00㎡ (대지 2.99㎡ 감소, 건물 35.27㎡ 감소)",37.5502741239803,127.093135225891
우원식,배우자,건물,상가,서울특별시 노원구 중계동 건영아파트상가 대지 259.32㎡건물 370.60㎡,1460792.0,서울특별시 노원구 중계동,건영아파트상가 대지 259.32㎡건물 370.60㎡,37.6525550467648,127.077488598779
이종성,본인,건물,상가,서울특별시 도봉구 방학동 삼익세라믹아파트 대지 37.85㎡건물 36.83㎡,128633.0,서울특별시 도봉구 방학동,삼익세라믹아파트 대지 37.85㎡건물 36.83㎡,37.665897548954,127.026875382235
이은주,배우자,건물,상가,서울특별시 동대문구 용두동 한방천하 용두동 포스빌 대지1.76㎡ 건물 6.82㎡,96877.0,서울특별시 동대문구 용두동 한방천하 용두동,포스빌 대지1.76㎡ 건물 6.82㎡,,
김홍걸,배우자,건물,상가,서울특별시 서대문구 대현동 대지 128.00㎡ 건물 263.80㎡,1351072.0,서울특별시 서대문구 대현동,대지 128.00㎡ 건물 263.80㎡,37.5607686463542,126.947212193537
정경희,배우자,건물,상가,서울특별시 서초구 잠원동 잠원한강 대지 17.42㎡ 건물43.80㎡,397695.0,서울특별시 서초구 잠원동,잠원한강 대지 17.42㎡ 건물43.80㎡,37.5149186880221,127.014102820234
허은아,본인,건물,상가,서울특별시 영등포구 여의도동 리버타워 건물 197.96㎡,891989.0,서울특별시 영등포구 여의도동,리버타워 건물 197.96㎡,37.5267849150832,126.930167091136
고재학,본인,건물,상가,서울특별시 종로구 청진동 대지 76.40㎡ 중 28.65㎡ 건물262.46㎡ 중 98.42㎡,1050000.0,서울특별시 종로구 청진동,대지 76.40㎡ 중 28.65㎡ 건물262.46㎡ 중 98.42㎡,37.5714393638425,126.98015420508
고재학,배우자,건물,상가,서울특별시 종로구 청진동 대지 76.40㎡ 중 28.65㎡ 건물262.46㎡ 중 98.42㎡,1050000.0,서울특별시 종로구 청진동,대지 76.40㎡ 중 28.65㎡ 건물262.46㎡ 중 98.42㎡,37.5714393638425,126.98015420508
고재학,장남,건물,상가,서울특별시 종로구 청진동 대지 76.40㎡ 중 9.55㎡ 건물262.46㎡ 중 32.81㎡,350000.0,서울특별시 종로구 청진동,대지 76.40㎡ 중 9.55㎡ 건물262.46㎡ 중 32.81㎡,37.5714393638425,126.98015420508
고재학,장녀,건물,상가,서울특별시 종로구 청진동 대지 76.40㎡ 중 9.55㎡ 건물262.46㎡ 중 32.81㎡,350000.0,서울특별시 종로구 청진동,대지 76.40㎡ 중 9.55㎡ 건물262.46㎡ 중 32.81㎡,37.5714393638425,126.98015420508
이만희,본인,건물,상가,서울특별시 중구 서소문동 유원빌딩 대지 7.25㎡ 중 3.62㎡건물 36.49㎡ 중 18.25㎡,336183.0,서울특별시 중구 서소문동,유원빌딩 대지 7.25㎡ 중 3.62㎡건물 36.49㎡ 중 18.25㎡,37.5631129454112,126.97389954989
이만희,배우자,건물,상가,서울특별시 중구 서소문동 유원빌딩 대지 7.25㎡ 중 3.62㎡건물 36.49㎡ 중 18.25㎡,336183.0,서울특별시 중구 서소문동,유원빌딩 대지 7.25㎡ 중 3.62㎡건물 36.49㎡ 중 18.25㎡,37.5631129454112,126.97389954989
하태경,배우자,건물,상가,"세종특별자치시 대평동 아마존타워 대지 1,000.00㎡ 중12.23㎡ 건물 1,000.00㎡ 중 68.95㎡",530170.0,세종특별자치시 대평동,"아마존타워 대지 1,000.00㎡ 중12.23㎡ 건물 1,000.00㎡ 중 68.95㎡",36.4701788762716,127.274841285487
김기현,본인,건물,상가,울산광역시 남구 달동 대지 379.00㎡ 중 322.85㎡ 건물954.80㎡ 중 813.35㎡,1150000.0,울산광역시 남구 달동,대지 379.00㎡ 중 322.85㎡ 건물954.80㎡ 중 813.35㎡,35.5363579790753,129.316532962709
김기현,배우자,건물,상가,울산광역시 남구 달동 대지 379.00㎡ 중 56.15㎡ 건물954.80㎡ 중 141.45㎡,200000.0,울산광역시 남구 달동,대지 379.00㎡ 중 56.15㎡ 건물954.80㎡ 중 141.45㎡,35.5363579790753,129.316532962709
김기현,본인,건물,상가,"울산광역시 남구 삼산동 대지 346.00㎡ 건물 1,599.77㎡",3651856.0,울산광역시 남구 삼산동,"대지 346.00㎡ 건물 1,599.77㎡",35.5444169723408,129.331864527424
권명호,본인,건물,상가,"울산광역시 동구 방어동 굿모닝빌라 대지 3,075,000.00㎡중 13.42㎡ 건물 40.68㎡",92000.0,울산광역시 동구 방어동,"굿모닝빌라 대지 3,075,000.00㎡중 13.42㎡ 건물 40.68㎡",35.4862304417203,129.423974129488
권명호,본인,건물,상가,"울산광역시 동구 방어동 굿모닝빌라 대지 3,075,000.00㎡중 24.11㎡ 건물 73.08㎡",95000.0,울산광역시 동구 방어동,"굿모닝빌라 대지 3,075,000.00㎡중 24.11㎡ 건물 73.08㎡",35.4862304417203,129.423974129488
김기현,본인,건물,상가,"울산광역시 동구 일산동 대지 1,163.40㎡ 중 581.70㎡ 건물671.90㎡ 중 335.95㎡",1281328.0,울산광역시 동구 일산동,"대지 1,163.40㎡ 중 581.70㎡ 건물671.90㎡ 중 335.95㎡",35.4990783464634,129.431363575859
신동근,본인,건물,상가,인천광역시 서구 마전동 검단프라자 대지 866.20㎡ 중48.00㎡ 건물 263.53㎡,371510.0,인천광역시 서구 마전동,검단프라자 대지 866.20㎡ 중48.00㎡ 건물 263.53㎡,37.5953744773207,126.673701407057
김윤덕,본인,건물,상가,전라북도 부안군 부안읍 서외리 유니온베이 건물 81.00㎡중 40.50㎡,51840.0,전라북도 부안군 부안읍 서외리,유니온베이 건물 81.00㎡중 40.50㎡,35.721561015514,126.728655085896
안호영,배우자,건물,상가,전라북도 전주시 덕진구 우아동2가 대지 280.10㎡ 건물190.80㎡,294045.0,전라북도 전주시 덕진구 우아동,2가 대지 280.10㎡ 건물190.80㎡,35.8498561266486,127.15955839816
권은희,배우자,건물,상가,충청북도 청주시 서원구 산남동 RS타워 대지 16.21㎡ 건물149.43㎡ 중 78.70㎡,198626.0,충청북도 청주시 서원구 산남동,RS타워 대지 16.21㎡ 건물149.43㎡ 중 78.70㎡,36.6132892221879,127.466882101284
권은희,배우자,건물,상가,충청북도 청주시 서원구 산남동 RS타워 대지 19.79㎡ 건물182.40㎡ 중 91.20㎡,242470.0,충청북도 청주시 서원구 산남동,RS타워 대지 19.79㎡ 건물182.40㎡ 중 91.20㎡,36.6132892221879,127.466882101284
권은희,배우자,건물,상가,충청북도 청주시 서원구 산남동 RS타워 대지 29.20㎡ 건물269.10㎡ 중 138.50㎡,357732.0,충청북도 청주시 서원구 산남동,RS타워 대지 29.20㎡ 건물269.10㎡ 중 138.50㎡,36.6132892221879,127.466882101284
권은희,배우자,건물,상가,충청북도 청주시 서원구 산남동 두꺼비빌딩 대지 28.17㎡건물 135.24㎡,235251.0,충청북도 청주시 서원구 산남동,두꺼비빌딩 대지 28.17㎡건물 135.24㎡,36.6132892221879,127.466882101284
권은희,배우자,건물,상가,충청북도 청주시 서원구 산남동 두꺼비빌딩 대지 28.41㎡건물 135.24㎡,237207.0,충청북도 청주시 서원구 산남동,두꺼비빌딩 대지 28.41㎡건물 135.24㎡,36.6132892221879,127.466882101284
신동근,본인,건물,아파트(전세(임차)권),인천광역시 서구 왕길동 드림파크어울림 1단지 건물0.00㎡ (건물 131.27㎡ 감소),0.0,인천광역시 서구 왕길동,드림파크어울림 1단지 건물0.00㎡ (건물 131.27㎡ 감소),37.5912216682019,126.650666521601
신영대,배우자,건물,다세대주택(전세(임차)권),전라북도 전주시 덕진구 인후동2가 건물 23.14㎡,5000.0,전라북도 전주시 덕진구 인후동,2가 건물 23.14㎡,35.8357672061898,127.157188190049
신영대,본인,건물,오피스텔(전세(임차)권),서울특별시 양천구 목동 건물 37.70㎡,30000.0,서울특별시 양천구 목동,건물 37.70㎡,37.5304364108361,126.870989288343
신원식,배우자,건물,아파트(전세(임차)권),서울특별시 성동구 옥수동 옥수동극동아파트 건물142.26㎡,850000.0,서울특별시 성동구 옥수동 옥수동극동,아파트 건물142.26㎡,,
신정훈,본인,건물,아파트(전세(임차)권),전라남도 나주시 빛가람동 빛가람엘에이치3단지아파트건물 84.96㎡ (건물 84.96㎡ 증가),37764.0,전라남도 나주시 빛가람동,빛가람엘에이치3단지아파트건물 84.96㎡ (건물 84.96㎡ 증가),35.0218010353365,126.790327011452
신정훈,본인,건물,오피스텔(전세(임차)권),서울특별시 영등포구 여의도동 여의도파라곤 건물 34.21㎡,10000.0,서울특별시 영등포구 여의도동,여의도파라곤 건물 34.21㎡,37.5267849150832,126.930167091136
안규백,본인,건물,사무실(전세(임차)권),서울특별시 동대문구 청량리동 한미빌딩 건물 128.16㎡,30000.0,서울특별시 동대문구 청량리동,한미빌딩 건물 128.16㎡,37.583046821837,127.048170770368
안민석,본인,건물,사무실(전세(임차)권),경기도 오산시 원동 대광빌딩 건물 228.50㎡,20000.0,경기도 오산시 원동,대광빌딩 건물 228.50㎡,37.1411447958707,127.079259957902
안병길,본인,건물,사무실(전세(임차)권),부산광역시 동구 수정동 건물 118.32㎡,25000.0,부산광역시 동구 수정동,건물 118.32㎡,35.1326931627434,129.036633280085
안병길,본인,건물,사무실(전세(임차)권),부산광역시 서구 부용동1가 신화킹덤 건물 320.10㎡,30000.0,부산광역시 서구 부용동,1가 신화킹덤 건물 320.10㎡,35.1038179072198,129.01842176485
안병길,본인,건물,아파트(전세(임차)권),부산광역시 동구 초량동 이편한세상부산항 건물 84.68㎡,20000.0,부산광역시 동구 초량동,이편한세상부산항 건물 84.68㎡,35.1213355196694,129.033586449747
안병길,배우자,건물,아파트(전세(임차)권),부산광역시 해운대구 좌동 해운대대우1차아파트 건물59.94㎡,10000.0,부산광역시 해운대구 좌동,해운대대우1차아파트 건물59.94㎡,35.1870826469031,129.174726496616
안철수,본인,건물,복합건물(주택+상가)(전세(임차)권),"경기도 성남시 분당구 백현동 알파리움1단지 건물 142,013.00㎡",1900000.0,경기도 성남시 분당구 백현동,"알파리움1단지 건물 142,013.00㎡",37.3885490672087,127.110871319215
안철수,본인,건물,사무실(전세(임차)권),경기도 성남시 분당구 야탑동 분당메트로 건물 120.17㎡(건물 120.17㎡ 증가),30000.0,경기도 성남시 분당구 야탑동,분당메트로 건물 120.17㎡(건물 120.17㎡ 증가),37.4120856880186,127.130167470751
안철수,본인,건물,아파트(전세(임차)권),서울특별시 노원구 상계동 수락산 늘푸른아파트 건물0.00㎡ (건물 123.82㎡ 감소),0.0,서울특별시 노원구 상계동,수락산 늘푸른아파트 건물0.00㎡ (건물 123.82㎡ 감소),37.66125057554,127.060252770712
안철수,모,건물,아파트(전세(임차)권),서울특별시 송파구 문정동 올림픽훼밀리타운 건물 84.75㎡,870000.0,서울특별시 송파구 문정동,올림픽훼밀리타운 건물 84.75㎡,37.4847415034154,127.118267660547
안호영,본인,건물,사무실(전세(임차)권),전라북도 완주군 봉동읍 둔산리 건물 156.37㎡,10000.0,전라북도 완주군 봉동,읍 둔산리 건물 156.37㎡,35.9416848722579,127.165802836097
안호영,장남,건물,오피스텔(전세(임차)권),경기도 이천시 안흥동 양우내안애 클래스568 건물 56.49㎡,5000.0,경기도 이천시 안흥동,양우내안애 클래스568 건물 56.49㎡,37.2761309779515,127.461793371116
안호영,본인,건물,오피스텔(전세(임차)권),서울특별시 영등포구 영등포동8가 건물 25.34㎡,10000.0,서울특별시 영등포구 영등포동,8가 건물 25.34㎡,37.5134118222975,126.906168599588
양경숙,배우자,건물,단독주택(전세(임차)권),서울특별시 용산구 보광동 대지 212.00㎡ 건물 89.79㎡ 중89.00㎡,50000.0,서울특별시 용산구 보광동,대지 212.00㎡ 건물 89.79㎡ 중89.00㎡,37.526272167319,127.000171956489
양경숙,본인,건물,사무실(전세(임차)권),전라북도 전주시 완산구 효자동2가 건물 566.78㎡ 중279.34㎡,5000.0,전라북도 전주시 완산구 효자동,2가 건물 566.78㎡ 중279.34㎡,35.80704255088,127.115628145167
양경숙,배우자,건물,상가(전세(임차)권),"서울특별시 종로구 신문로2가 대지 0.00㎡ 건물 0.00㎡(대지 56.00㎡ 감소, 건물 168.00㎡ 감소)",0.0,서울특별시 종로구 신문로2가,"대지 0.00㎡ 건물 0.00㎡(대지 56.00㎡ 감소, 건물 168.00㎡ 감소)",37.5706622933598,126.969722233416
양경숙,배우자,건물,아파트(전세(임차)권),서울특별시 종로구 행촌동 경희궁자이 1단지 건물 54.00㎡,73000.0,서울특별시 종로구 행촌동,경희궁자이 1단지 건물 54.00㎡,37.5733270930886,126.962272567935
양경숙,본인,건물,아파트(전세(임차)권),전라북도 전주시 완산구 효자동1가 한성아파트 건물56.30㎡,50000.0,전라북도 전주시 완산구 효자동,1가 한성아파트 건물56.30㎡,35.80704255088,127.115628145167
권은희,배우자,건물,숙박시설,"제주특별자치도 서귀포시 서귀동 오션팰리스 대지2,715.00㎡ 중 13.16㎡ 건물 77.38㎡",237110.0,제주특별자치도 서귀포시 서귀동,"오션팰리스 대지2,715.00㎡ 중 13.16㎡ 건물 77.38㎡",33.2493503649128,126.562475820762
권은희,배우자,건물,숙박시설(분양권),"강원도 강릉시 송정동 대지 93.98㎡ 건물 208.45㎡ (대지93.98㎡ 증가, 건물 208.45㎡ 증가)",234660.0,강원도 강릉시 송정동,"대지 93.98㎡ 건물 208.45㎡ (대지93.98㎡ 증가, 건물 208.45㎡ 증가)",37.7744654113195,128.927564578009
양금희,본인,건물,근린생활시설(전세(임차)권),대구광역시 북구 침산동 엠비프라자 건물 136.61㎡,50000.0,대구광역시 북구 침산동,엠비프라자 건물 136.61㎡,35.8903579121137,128.581164319124
권성동,본인,건물,아파트,강원도 강릉시 교동 강릉교동롯데캐슬1단지 건물 135.17㎡중 67.59㎡,157000.0,강원도 강릉시 교동 강릉교동,롯데캐슬1단지 건물 135.17㎡중 67.59㎡,37.7655714454507,128.874476030758
권성동,배우자,건물,아파트,강원도 강릉시 교동 강릉교동롯데캐슬1단지 건물 135.17㎡중 67.59㎡,157000.0,강원도 강릉시 교동 강릉교동,롯데캐슬1단지 건물 135.17㎡중 67.59㎡,37.7655714454507,128.874476030758
이철규,본인,건물,아파트,강원도 동해시 평릉동 동해엘리시아 아파트 건물 84.90㎡,261000.0,강원도 동해시 평릉동 동,해엘리시아 아파트 건물 84.90㎡,,
이양수,본인,건물,아파트,강원도 속초시 조양동 부영아파트 건물 84.88㎡,210000.0,강원도 속초시 조양동,부영아파트 건물 84.88㎡,38.1876460540134,128.590848362527
이광재,부,건물,아파트,강원도 원주시 명륜동 구곡동보렉스9차아파트 건물115.28㎡ 중 57.64㎡,78000.0,강원도 원주시 명륜동 구곡동,보렉스9차아파트 건물115.28㎡ 중 57.64㎡,,
이광재,모,건물,아파트,강원도 원주시 명륜동 구곡동보렉스9차아파트 건물115.28㎡ 중 57.64㎡,78000.0,강원도 원주시 명륜동 구곡동,보렉스9차아파트 건물115.28㎡ 중 57.64㎡,,
노용호,본인,건물,아파트,강원도 춘천시 석사동 휴먼타운아파트 건물 84.89㎡,157000.0,강원도 춘천시 석사동,휴먼타운아파트 건물 84.89㎡,37.8552732879352,127.746663141751
조경호,본인,건물,아파트,경기도 고양시 덕양구 신원동 건물 84.77㎡,537000.0,경기도 고양시 덕양구 신원동,건물 84.77㎡,37.6777544978936,126.87686960269
심상정,배우자,건물,아파트,경기도 고양시 덕양구 신원동 우림필유아파트 건물114.44㎡,569000.0,경기도 고양시 덕양구 신원동,우림필유아파트 건물114.44㎡,37.6777544978936,126.87686960269
이채익,장녀,건물,아파트,경기도 고양시 덕양구 행신동 소만마을9단지아파트 건물43.76㎡,300000.0,경기도 고양시 덕양구 행신동,소만마을9단지아파트 건물43.76㎡,37.6223556606646,126.836037177307
이원욱,부,건물,아파트,경기도 고양시 덕양구 행신동 소만마을아파트 건물45.36㎡ 중 22.68㎡,117500.0,경기도 고양시 덕양구 행신동,소만마을아파트 건물45.36㎡ 중 22.68㎡,37.6223556606646,126.836037177307
이원욱,모,건물,아파트,경기도 고양시 덕양구 행신동 소만마을아파트 건물45.36㎡ 중 22.68㎡,117500.0,경기도 고양시 덕양구 행신동,소만마을아파트 건물45.36㎡ 중 22.68㎡,37.6223556606646,126.836037177307
김승수,본인,건물,아파트,경기도 고양시 일산동구 마두2동 강촌마을 동아아파트건물 77.01㎡,335000.0,경기도 고양시 일산동구 마두2동 강촌마을 동,아아파트건물 77.01㎡,,
김승수,배우자,건물,아파트,경기도 고양시 일산동구 마두동 강촌마을 동아아파트 건물154.02㎡ 중 77.01㎡,335000.0,경기도 고양시 일산동구 마두동 강촌마을 동,아아파트 건물154.02㎡ 중 77.01㎡,,
홍정민,배우자,건물,아파트,경기도 고양시 일산동구 마두동 백마마을5단지아파트 건물101.76㎡,645000.0,경기도 고양시 일산동구 마두동,백마마을5단지아파트 건물101.76㎡,37.6557662385335,126.789654489141
최혜영,본인,건물,아파트,경기도 고양시 일산동구 식사동 일산자이2차 건물 84.00㎡중 42.00㎡,250000.0,경기도 고양시 일산동구 식사동,일산자이2차 건물 84.00㎡중 42.00㎡,37.6773400834299,126.813707127491
최혜영,배우자,건물,아파트,경기도 고양시 일산동구 식사동 일산자이2차 건물 84.00㎡중 42.00㎡,250000.0,경기도 고양시 일산동구 식사동,일산자이2차 건물 84.00㎡중 42.00㎡,37.6773400834299,126.813707127491
진성준,배우자,건물,아파트,경기도 고양시 일산서구 일산동 후곡마을17단지아파트건물 101.93㎡,496000.0,경기도 고양시 일산서구 일산동,후곡마을17단지아파트건물 101.93㎡,37.6871456348795,126.768555621104
소병훈,모,건물,아파트,경기도 고양시 일산서구 주엽동 강선마을 건물 84.63㎡,463000.0,경기도 고양시 일산서구 주엽동,강선마을 건물 84.63㎡,37.6700959284218,126.763299407637
김형동,본인,건물,아파트,경기도 고양시일산서구 주엽동 문촌마을 건물 134.97㎡,695000.0,경기도 고양시일산서구 주엽동,문촌마을 건물 134.97㎡,37.6700959284218,126.763299407637
한준호,배우자,건물,아파트,경기도 고양시일산서구 탄현동 건물 122.20㎡,294000.0,경기도 고양시일산서구 탄현동,건물 122.20㎡,37.6943496272333,126.76845159422
홍기원,배우자,건물,아파트,경기도 과천시 별양동 건물 84.96㎡,1160000.0,경기도 과천시 별양동,건물 84.96㎡,37.4242344328095,126.993763748511
조기열,본인,건물,아파트,경기도 과천시 별양동 과천 위버필드 건물 130.27㎡ 중65.14㎡,809500.0,경기도 과천시 별양동,과천 위버필드 건물 130.27㎡ 중65.14㎡,37.4242344328095,126.993763748511
조기열,배우자,건물,아파트,경기도 과천시 별양동 과천 위버필드 건물 130.27㎡ 중65.14㎡,809500.0,경기도 과천시 별양동,과천 위버필드 건물 130.27㎡ 중65.14㎡,37.4242344328095,126.993763748511
심상정,모,건물,아파트,경기도 과천시 별양동 래미안슈르 건물 84.96㎡,1160000.0,경기도 과천시 별양동,래미안슈르 건물 84.96㎡,37.4242344328095,126.993763748511
송언석,차녀,건물,아파트,경기도 과천시 부림동 주공아파트 건물 73.02㎡ 중 36.51㎡,550000.0,경기도 과천시 부림동,주공아파트 건물 73.02㎡ 중 36.51㎡,37.4334610032568,126.99861248972
양기대,배우자,건물,아파트,경기도 광명시 철산동 철산푸르지오하늘채 건물 114.98㎡,838000.0,경기도 광명시 철산동,철산푸르지오하늘채 건물 114.98㎡,37.490749226867,126.867941213494
김석기,본인,건물,아파트,경기도 광명시 하안1동 이편한세상 센트레빌아파트 건물123.70㎡,752000.0,경기도 광명시 하안1동,이편한세상 센트레빌아파트 건물123.70㎡,37.4651835619708,126.869166301063
권혁기,배우자,건물,아파트,경기도 광주시 오포읍 능평리 능평리현대 건물 84.86㎡,309000.0,경기도 광주시 오포읍 능평리 능평리,현대 건물 84.86㎡,37.3497062329604,127.167264087448
허은아,모,건물,아파트,경기도 광주시 오포읍 양벌리 산 광주역우방아이유쉘2단지 건물 77.89㎡ (건물 77.89㎡증가),315900.0,경기도 광주시 오포읍 양벌리,산 광주역우방아이유쉘2단지 건물 77.89㎡ (건물 77.89㎡증가),37.3790304526116,127.258648790356
소병훈,본인,건물,아파트,경기도 광주시 탄벌동 경남아너스빌2단지 건물 159.94㎡,456000.0,경기도 광주시 탄벌동,경남아너스빌2단지 건물 159.94㎡,37.4196823992846,127.246095404439
조기열,모,건물,아파트,경기도 구리시 수택동 명가아파트 건물 59.58㎡ (건물59.58㎡ 증가),158000.0,경기도 구리시 수택동,명가아파트 건물 59.58㎡ (건물59.58㎡ 증가),37.5965169131568,127.149171916297
윤호중,본인,건물,아파트,경기도 구리시 인창동 삼보아파트 건물 101.94㎡,584000.0,경기도 구리시 인창동,삼보아파트 건물 101.94㎡,37.6044843983227,127.13492316761
이양수,배우자,건물,아파트,경기도 구리시 토평동 토평마을이편한세상아파트 건물84.59㎡,648000.0,경기도 구리시 토평동,토평마을이편한세상아파트 건물84.59㎡,37.5825944751508,127.152241676825
이학영,본인,건물,아파트,경기도 군포시 산본동 한양목련아파트 건물 126.00㎡ 중63.00㎡,255000.0,경기도 군포시 산본동,한양목련아파트 건물 126.00㎡ 중63.00㎡,37.3733541681046,126.93856024766
이학영,배우자,건물,아파트,경기도 군포시 산본동 한양목련아파트 건물 126.00㎡ 중63.00㎡,255000.0,경기도 군포시 산본동,한양목련아파트 건물 126.00㎡ 중63.00㎡,37.3733541681046,126.93856024766
채수근,본인,건물,아파트,경기도 김포시 풍무동 풍무푸르지오 건물 108.99㎡,652000.0,경기도 김포시 풍무동,풍무푸르지오 건물 108.99㎡,37.6021763512159,126.722044880847
박재유,모,건물,아파트,경기도 남양주시 다산동 플루리움 건물 134.87㎡,572000.0,경기도 남양주시 다산동,플루리움 건물 134.87㎡,37.613445683167,127.159444527968
박재유,모,건물,아파트,경기도 남양주시 다산동 플루리움 건물 162.45㎡,613000.0,경기도 남양주시 다산동,플루리움 건물 162.45㎡,37.613445683167,127.159444527968
김한정,본인,건물,아파트,경기도 남양주시 별내동 쌍용예가아파트 건물 134.98㎡ 중67.49㎡,401000.0,경기도 남양주시 별내동,쌍용예가아파트 건물 134.98㎡ 중67.49㎡,37.6462754221373,127.121981563821
김한정,배우자,건물,아파트,경기도 남양주시 별내동 쌍용예가아파트 건물 134.98㎡ 중67.49㎡,401000.0,경기도 남양주시 별내동,쌍용예가아파트 건물 134.98㎡ 중67.49㎡,37.6462754221373,127.121981563821
오영환,모,건물,아파트,경기도 동두천시 생연동 부영아파트 건물 59.84㎡,240000.0,경기도 동두천시 생연동,부영아파트 건물 59.84㎡,37.9073618412166,127.065583509011
김상희,본인,건물,아파트,경기도 부천시 소사본동 두산아파트 건물 101.82㎡,293000.0,경기도 부천시 소사본동,두산아파트 건물 101.82㎡,37.4732983877814,126.794657224748
서영석,배우자,건물,아파트,경기도 부천시 여월동 여월휴먼시아 건물 84.95㎡,624000.0,경기도 부천시 여월동,여월휴먼시아 건물 84.95㎡,37.5128190218346,126.798213723457
설훈,본인,건물,아파트,경기도 부천시 중동 그린타운 건물 133.47㎡,559000.0,경기도 부천시 중동,그린타운 건물 133.47㎡,37.500092215722,126.77003891891
이재명,배우자,건물,아파트,경기도 성남시 분당구 수내동 양지마을 건물 164.25㎡ 중82.12㎡,820500.0,경기도 성남시 분당구 수내동,양지마을 건물 164.25㎡ 중82.12㎡,37.3754592998368,127.118005540215
이재명,본인,건물,아파트,경기도 성남시 분당구 수내동 양지마을금호1단지아파트건물 82.13㎡,820500.0,경기도 성남시 분당구 수내동,양지마을금호1단지아파트건물 82.13㎡,37.3754592998368,127.118005540215
김병욱(경기 성남시분당구을),본인,건물,아파트,경기도 성남시 분당구 정자동 상록마을우성아파트 건물162.60㎡ 중 81.30㎡,693500.0,경기도 성남시 분당구 정자동,상록마을우성아파트 건물162.60㎡ 중 81.30㎡,37.361449216955,127.1115403336
김병욱(경기 성남시분당구을),배우자,건물,아파트,경기도 성남시 분당구 정자동 상록마을우성아파트 건물162.60㎡ 중 81.30㎡,693500.0,경기도 성남시 분당구 정자동,상록마을우성아파트 건물162.60㎡ 중 81.30㎡,37.361449216955,127.1115403336
김성원,배우자,건물,아파트,경기도 성남시 수정구 단대동 푸르지오 건물 114.88㎡,766000.0,경기도 성남시 수정구 단대동,푸르지오 건물 114.88㎡,37.4493897577629,127.155361716912
김태년,본인,건물,아파트,경기도 성남시 수정구 수진동 삼부아파트 건물 135.00㎡중 67.50㎡,354500.0,경기도 성남시 수정구 수진동,삼부아파트 건물 135.00㎡중 67.50㎡,37.4385763091098,127.139027108809
김태년,배우자,건물,아파트,경기도 성남시 수정구 수진동 삼부아파트 건물 135.00㎡중 67.50㎡,354500.0,경기도 성남시 수정구 수진동,삼부아파트 건물 135.00㎡중 67.50㎡,37.4385763091098,127.139027108809
노우진,본인,건물,아파트,경기도 성남시 수정구 신흥동 산성역 포레스티아 건물84.00㎡ 중 42.00㎡,460000.0,경기도 성남시 수정구 신흥동,산성역 포레스티아 건물84.00㎡ 중 42.00㎡,37.4431149209876,127.141137377657
노우진,배우자,건물,아파트,경기도 성남시 수정구 신흥동 산성역 포레스티아 건물84.00㎡ 중 42.00㎡,460000.0,경기도 성남시 수정구 신흥동,산성역 포레스티아 건물84.00㎡ 중 42.00㎡,37.4431149209876,127.141137377657
윤영찬,본인,건물,아파트,경기도 성남시 중원구 중앙동 롯데캐슬 건물 114.84㎡ 중57.42㎡,450000.0,경기도 성남시 중원구 중앙동,롯데캐슬 건물 114.84㎡ 중57.42㎡,37.4429300831519,127.156279509281
윤영찬,배우자,건물,아파트,경기도 성남시 중원구 중앙동 롯데캐슬 건물 114.84㎡ 중57.42㎡,450000.0,경기도 성남시 중원구 중앙동,롯데캐슬 건물 114.84㎡ 중57.42㎡,37.4429300831519,127.156279509281
정일영,본인,건물,아파트,경기도 성남시분당구 판교동 판교원마을 건물 118.64㎡ 중59.32㎡,619500.0,경기도 성남시분당구 판교동,판교원마을 건물 118.64㎡ 중59.32㎡,37.3898680691971,127.09878136729
정일영,배우자,건물,아파트,경기도 성남시분당구 판교동 판교원마을 건물 118.64㎡ 중59.32㎡,619500.0,경기도 성남시분당구 판교동,판교원마을 건물 118.64㎡ 중59.32㎡,37.3898680691971,127.09878136729
윤미향,본인,건물,아파트,경기도 수원시 권선구 금곡동 건물 84.42㎡,349000.0,경기도 수원시 권선구 금곡동,건물 84.42㎡,37.2727944144458,126.952325262645
양향자,배우자,건물,아파트,경기도 수원시 영통구 망포동 동수원자이1차 건물126.35㎡,464000.0,경기도 수원시 영통구 망포동 동,수원자이1차 건물126.35㎡,,
진선희,부,건물,아파트,경기도 수원시장안구 정자동 벽산아파트 건물 84.96㎡(건물 84.96㎡ 증가),346000.0,경기도 수원시장안구 정자동,벽산아파트 건물 84.96㎡(건물 84.96㎡ 증가),37.3017558325298,126.990841281045
민병덕,모,건물,아파트,경기도 시흥시 매화동 서능아파트 건물 45.66㎡,112000.0,경기도 시흥시 매화동,서능아파트 건물 45.66㎡,37.4179850408626,126.815313932331
문정복,본인,건물,아파트,경기도 시흥시 은행동 시흥은행 대우 푸르지오아파트 건물84.75㎡,412000.0,경기도 시흥시 은행동,시흥은행 대우 푸르지오아파트 건물84.75㎡,37.4363375149834,126.798039582132
조정식,배우자,건물,아파트,경기도 시흥시 정왕동 배곧신도시 SK뷰 건물 84.50㎡,501000.0,경기도 시흥시 정왕동,배곧신도시 SK뷰 건물 84.50㎡,37.3472707997814,126.722129562609
임이자,본인,건물,아파트,경기도 안산시 단원구 고잔동 호수공원아파트 건물87.19㎡,428000.0,경기도 안산시 단원구 고잔동,호수공원아파트 건물87.19㎡,37.3219394584909,126.832292027071
고영인,본인,건물,아파트,경기도 안산시 단원구 선부동 수정한양아파트 건물155.15㎡,331000.0,경기도 안산시 단원구 선부동,수정한양아파트 건물155.15㎡,37.3341794459411,126.804370669728
김철민,배우자,건물,아파트,경기도 안산시 상록구 사동 선경아파트 건물 0.00㎡ (건물129.77㎡ 감소),0.0,경기도 안산시 상록구 사동,선경아파트 건물 0.00㎡ (건물129.77㎡ 감소),37.2971248482643,126.851055922583
전해철,배우자,건물,아파트,경기도 안산시 상록구 사동 안산고잔6차 푸르지오 건물141.95㎡,590000.0,경기도 안산시 상록구 사동,안산고잔6차 푸르지오 건물141.95㎡,37.2971248482643,126.851055922583
용혜인,부,건물,아파트,경기도 안산시 상록구 사동 안산고잔7차푸르지오 건물89.21㎡ 중 44.60㎡,197480.0,경기도 안산시 상록구 사동,안산고잔7차푸르지오 건물89.21㎡ 중 44.60㎡,37.2971248482643,126.851055922583
용혜인,모,건물,아파트,경기도 안산시 상록구 사동 안산고잔7차푸르지오 건물89.21㎡ 중 44.60㎡,197480.0,경기도 안산시 상록구 사동,안산고잔7차푸르지오 건물89.21㎡ 중 44.60㎡,37.2971248482643,126.851055922583
김상훈,장남,건물,아파트,경기도 안양시 동안구 평촌동 초원대림아파트 건물59.74㎡,790000.0,경기도 안양시 동안구 평촌동,초원대림아파트 건물59.74㎡,37.3946500892517,126.977084010595
이재정,본인,건물,아파트,경기도 안양시 동안구 호계동 호계2차현대홈타운 건물115.07㎡,621000.0,경기도 안양시 동안구 호계동,호계2차현대홈타운 건물115.07㎡,37.3750923511743,126.957201177225
김원이,본인,건물,아파트,경기도 안양시 만안구 석수동 석수아이파크 건물 84.94㎡중 42.47㎡,241000.0,경기도 안양시 만안구 석수동,석수아이파크 건물 84.94㎡중 42.47㎡,37.4195876104533,126.91063733651
김원이,배우자,건물,아파트,경기도 안양시 만안구 석수동 석수아이파크 건물 84.94㎡중 42.47㎡,241000.0,경기도 안양시 만안구 석수동,석수아이파크 건물 84.94㎡중 42.47㎡,37.4195876104533,126.91063733651
하태경,본인,건물,아파트,경기도 안양시 만안구 안양동 삼성래미안아파트 건물79.32㎡,533000.0,경기도 안양시 만안구 안양동,삼성래미안아파트 건물79.32㎡,37.3861273838989,126.915649986285
강득구,배우자,건물,아파트,경기도 안양시만안구 만안구 석수동 코오롱하늘채 건물117.61㎡,495000.0,경기도 안양시만안구 만안구 석수동,코오롱하늘채 건물117.61㎡,37.4195876104533,126.91063733651
정성호,배우자,건물,아파트,경기도 양주시 덕정동 주공4단지아파트 건물 107.90㎡,290000.0,경기도 양주시 덕정동,주공4단지아파트 건물 107.90㎡,37.8467321091633,127.064716277101
장혜영,부,건물,아파트,경기도 여주시 오학동 여주신도브래뉴 건물 126.49㎡,327900.0,경기도 여주시 오학동,여주신도브래뉴 건물 126.49㎡,37.3110856971203,127.647466891088
안민석,배우자,건물,아파트,경기도 오산시 수청동 물향기마을 휴먼시아 꿈에그린 건물123.97㎡,406970.0,경기도 오산시 수청동,물향기마을 휴먼시아 꿈에그린 건물123.97㎡,37.1657108167176,127.061847726809
최승재,본인,건물,아파트,경기도 용인시 수지구 상현동 상현마을수지센트럴아이파크 건물 101.98㎡,658000.0,경기도 용인시 수지구 상현동,상현마을수지센트럴아이파크 건물 101.98㎡,37.304564864274,127.081096021137
정춘숙,배우자,건물,아파트,경기도 용인시 수지구 풍덕천동 수지현대아파트 건물84.51㎡ 중 42.25㎡,302464.0,경기도 용인시 수지구 풍덕천동,수지현대아파트 건물84.51㎡ 중 42.25㎡,37.3279850450603,127.094949785208
정춘숙,본인,건물,아파트,경기도 용인시 수지구 풍덕천동 수지현대아파트 건물84.51㎡ 중 42.26㎡,302536.0,경기도 용인시 수지구 풍덕천동,수지현대아파트 건물84.51㎡ 중 42.26㎡,37.3279850450603,127.094949785208
하영제,장남,건물,아파트,경기도 용인시 처인구 유방동 서희스타힐스 건물 71.29㎡,225140.0,경기도 용인시 처인구 유방동,서희스타힐스 건물 71.29㎡,37.2576019329047,127.20432746298
하영제,장녀,건물,아파트,경기도 용인시 처인구 유방동 서희스타힐스 건물 71.29㎡,225140.0,경기도 용인시 처인구 유방동,서희스타힐스 건물 71.29㎡,37.2576019329047,127.20432746298
서정숙,본인,건물,아파트,경기도 용인시수지구 풍덕천동 진산마을삼성5차아파트건물 155.32㎡,867000.0,경기도 용인시수지구 풍덕천동,진산마을삼성5차아파트건물 155.32㎡,37.3279850450603,127.094949785208
유정주,본인,건물,아파트,경기도 용인시처인구 고림동 예원마을코아루아파트 건물84.75㎡,165000.0,경기도 용인시처인구 고림동,예원마을코아루아파트 건물84.75㎡,37.2479057581579,127.226640714475
송석준,본인,건물,아파트,경기도 의왕시 포일동 포일숲속마을 건물 134.82㎡ 중67.41㎡,518000.0,경기도 의왕시 포일동,포일숲속마을 건물 134.82㎡ 중67.41㎡,37.3965908527999,126.98961006605
송석준,배우자,건물,아파트,경기도 의왕시 포일동 포일숲속마을 건물 134.82㎡ 중67.41㎡,518000.0,경기도 의왕시 포일동,포일숲속마을 건물 134.82㎡ 중67.41㎡,37.3965908527999,126.98961006605
최영희,본인,건물,아파트,경기도 의정부시 신곡동 드림밸리아파트 건물 123.15㎡,424000.0,경기도 의정부시 신곡동,드림밸리아파트 건물 123.15㎡,37.7314238778054,127.056847377285
김민철,본인,건물,아파트,"경기도 의정부시 용현동 현대아파트 건물 84.94㎡ (건물84,860.06㎡ 감소)",370000.0,경기도 의정부시 용현동,"현대아파트 건물 84.94㎡ (건물84,860.06㎡ 감소)",37.7338683010295,127.079978282419
권혁기,모,건물,아파트,경기도 의정부시 장암동 신곡우성아파트 건물 84.98㎡,269000.0,경기도 의정부시 장암동,신곡우성아파트 건물 84.98㎡,37.7263976740224,127.054270875497
강민정,모,건물,아파트,경기도 의정부시 호원동 신일유토빌아파트 건물 148.98㎡,552000.0,경기도 의정부시 호원동,신일유토빌아파트 건물 148.98㎡,37.7141699194513,127.034477959332
오영환,본인,건물,아파트,"경기도 의정부시 호원동 아이파크호원동 건물 119.99㎡ 중59.99㎡ (건물 총면적 119.99㎡ 증가, 지분면적 59.99㎡ 증가)",447500.0,경기도 의정부시 호원동 아이파크호원동,"건물 119.99㎡ 중59.99㎡ (건물 총면적 119.99㎡ 증가, 지분면적 59.99㎡ 증가)",,
오영환,배우자,건물,아파트,"경기도 의정부시 호원동 아이파크호원동 건물 119.99㎡ 중59.99㎡ (건물 총면적 119.99㎡ 증가, 지분면적 59.99㎡ 증가)",447500.0,경기도 의정부시 호원동 아이파크호원동,"건물 119.99㎡ 중59.99㎡ (건물 총면적 119.99㎡ 증가, 지분면적 59.99㎡ 증가)",,
유의동,배우자,건물,아파트,경기도 평택시 용이동 평택용이2차푸르지오아파트 건물130.00㎡,420000.0,경기도 평택시 용이동,평택용이2차푸르지오아파트 건물130.00㎡,37.0036183281677,127.14248240822
이용,본인,건물,아파트,"경기도 하남시 선동 미사강변 2차 푸르지오 건물101,818.00㎡ 중 50.90㎡",665000.0,경기도 하남시 선동,"미사강변 2차 푸르지오 건물101,818.00㎡ 중 50.90㎡",37.5862418523929,127.184933407624
이용,배우자,건물,아파트,"경기도 하남시 선동 미사강변 2차 푸르지오 건물101,818.00㎡ 중 50.90㎡",665000.0,경기도 하남시 선동,"미사강변 2차 푸르지오 건물101,818.00㎡ 중 50.90㎡",37.5862418523929,127.184933407624
권칠승,본인,건물,아파트,경기도 화성시 병점동 정든마을신창비바페밀리 2차 건물101.98㎡,373000.0,경기도 화성시 병점동,정든마을신창비바페밀리 2차 건물101.98㎡,37.2069172825447,127.037269392114
양향자,본인,건물,아파트,경기도 화성시 청계동 롯데캐슬알바트로스 건물 122.98㎡,890000.0,경기도 화성시 청계동,롯데캐슬알바트로스 건물 122.98㎡,37.195686479495,127.111863681106
김정호,본인,건물,아파트,경상남도 김해시 부곡동 월산마을부영4단지19차아파트건물 80.88㎡,105000.0,경상남도 김해시 부곡동,월산마을부영4단지19차아파트건물 80.88㎡,35.2138982047417,128.795797868369
김영배,부,건물,아파트,경상남도 양산시 덕계동 대승하이아트아파트 건물 83.45㎡,75200.0,경상남도 양산시 덕계동,대승하이아트아파트 건물 83.45㎡,35.3750114142141,129.149287564323
강민국,본인,건물,아파트,경상남도 진주시 상평동 진주센트럴자이 건물 84.53㎡,213000.0,경상남도 진주시 상평동,진주센트럴자이 건물 84.53㎡,35.17608569905,128.109103586641
이해식,부,건물,아파트,경상남도 창원시 성산구 사파동 대동아파트 건물 50.25㎡,211000.0,경상남도 창원시 성산구 사파동 대동,아파트 건물 50.25㎡,,
윤한홍,배우자,건물,아파트,경상남도 창원시 성산구 신월동 주공아파트 건물 59.12㎡,456000.0,경상남도 창원시 성산구 신월동,주공아파트 건물 59.12㎡,35.2282224133468,128.690270693515
구자근,본인,건물,아파트,경상북도 구미시 비산동 강변코오롱하늘채 건물 70.99㎡,205800.0,경상북도 구미시 비산동,강변코오롱하늘채 건물 70.99㎡,36.1237071822283,128.38083340459
임이자,본인,건물,아파트,경상북도 상주시 무양동 상주무양LH천년나무아파트 건물84.98㎡,265000.0,경상북도 상주시 무양동,상주무양LH천년나무아파트 건물84.98㎡,36.4213525073987,128.15287750432
조오섭,배우자,건물,아파트,광주광역시 북구 문흥동 금호타운 건물 84.84㎡,143000.0,광주광역시 북구 문흥동,금호타운 건물 84.84㎡,35.1868242042588,126.921629513828
이개호,배우자,건물,아파트,광주광역시 북구 운암동 나산건강아파트 건물 183.99㎡,226000.0,광주광역시 북구 운암동,나산건강아파트 건물 183.99㎡,35.1748541088139,126.874419244294
이형석,본인,건물,아파트,광주광역시 북구 일곡동 금호 건물 84.72㎡,196000.0,광주광역시 북구 일곡동,금호 건물 84.72㎡,35.2060372793789,126.897275132738
김승남,배우자,건물,아파트,광주광역시 북구 일곡동 대림1 건물 59.93㎡,180000.0,광주광역시 북구 일곡동,대림1 건물 59.93㎡,35.2060372793789,126.897275132738
강은미,본인,건물,아파트,광주광역시 서구 금호동 호반리젠시빌5차 건물 84.89㎡,233000.0,광주광역시 서구 금호동,호반리젠시빌5차 건물 84.89㎡,35.1351932464321,126.857200855898
임병헌,본인,건물,아파트,대구광역시 남구 봉덕동 보성대덕아파트 건물 132.56㎡,410000.0,대구광역시 남구 봉덕동,보성대덕아파트 건물 132.56㎡,35.8455729454257,128.597908299005
윤재옥,배우자,건물,아파트,대구광역시 달서구 도원동 사계절타운아파트 건물 84.96㎡,199000.0,대구광역시 달서구 도원동,사계절타운아파트 건물 84.96㎡,35.8074811635163,128.532179565126
김영식,배우자,건물,아파트,대구광역시 달서구 상인동 상인 화성파크드림 2단지 건물134.00㎡,511000.0,대구광역시 달서구 상인동,상인 화성파크드림 2단지 건물134.00㎡,35.8140108485551,128.545280592943
윤재옥,부,건물,아파트,대구광역시 달서구 월성동 월성영남맨션 건물 84.89㎡,218000.0,대구광역시 달서구 월성동,월성영남맨션 건물 84.89㎡,35.8195928330291,128.522529469033
김병주,모,건물,아파트,대구광역시 동구 신암동 에스디 아이프라임 건물 84.85㎡,240000.0,대구광역시 동구 신암동,에스디 아이프라임 건물 84.85㎡,35.8842737864276,128.616332122198
류성걸,배우자,건물,아파트,대구광역시 동구 신천동 화성파크드림이스트밸리 건물143.94㎡ 중 47.98㎡,143667.0,대구광역시 동구 신천동,화성파크드림이스트밸리 건물143.94㎡ 중 47.98㎡,35.8719700892442,128.626843791513
류성걸,본인,건물,아파트,대구광역시 동구 신천동 화성파크드림이스트밸리 건물143.94㎡ 중 95.96㎡,287333.0,대구광역시 동구 신천동,화성파크드림이스트밸리 건물143.94㎡ 중 95.96㎡,35.8719700892442,128.626843791513
홍석준,배우자,건물,아파트,대구광역시 동구 지묘동 왕산우방타운 건물 84.93㎡,158000.0,대구광역시 동구 지묘동,왕산우방타운 건물 84.93㎡,35.9499824176018,128.642494683069
조명희,본인,건물,아파트,대구광역시 동구 지묘동 태왕그린힐즈 건물 167.00㎡,234000.0,대구광역시 동구 지묘동,태왕그린힐즈 건물 167.00㎡,35.9499824176018,128.642494683069
김상훈,본인,건물,아파트,대구광역시 수성구 범물동 한라아파트 건물 132.02㎡,387000.0,대구광역시 수성구 범물동,한라아파트 건물 132.02㎡,35.8178791093646,128.645964449875
최연숙,본인,건물,아파트,대구광역시 수성구 범어동 우방크로바아파트 건물 67.95㎡,460000.0,대구광역시 수성구 범어동,우방크로바아파트 건물 67.95㎡,35.8555358516494,128.622124414966
이인선,배우자,건물,아파트,대구광역시 수성구 수성동3가 수성 코오롱 하늘채 건물149.81㎡,1231000.0,대구광역시 수성구 수성동,3가 수성 코오롱 하늘채 건물149.81㎡,35.8552512717561,128.610323117646
한무경,본인,건물,아파트,대구광역시 수성구 황금동 태왕아너스아파트 건물244.72㎡,2164000.0,대구광역시 수성구 황금동,태왕아너스아파트 건물244.72㎡,35.84398924816,128.638149961102
박범계,본인,건물,아파트,대전광역시 서구 둔산동 파랑새아파트 건물 84.95㎡,350000.0,대전광역시 서구 둔산동,파랑새아파트 건물 84.95㎡,36.3525471565863,127.385816196595
이명수,본인,건물,아파트,대전광역시 서구 월평동 한아름 아파트 건물 123.87㎡,451000.0,대전광역시 서구 월평동,한아름 아파트 건물 123.87㎡,36.3546931857663,127.357608933166
조승래,배우자,건물,아파트,대전광역시 유성구 봉명동 호반베르디움아파트 건물84.93㎡,578000.0,대전광역시 유성구 봉명동,호반베르디움아파트 건물84.93㎡,36.3549114724545,127.345907414374
이상민,본인,건물,아파트,대전광역시 유성구 전민동 엑스포아파트 건물 116.37㎡,392000.0,대전광역시 유성구 전민동,엑스포아파트 건물 116.37㎡,36.4000125495647,127.400381822617
이상민,본인,건물,아파트,대전광역시 유성구 전민동 엑스포아파트 건물 188.43㎡,477000.0,대전광역시 유성구 전민동,엑스포아파트 건물 188.43㎡,36.4000125495647,127.400381822617
백종헌,본인,건물,아파트,부산광역시 금정구 부곡동 에스케이아파트 건물 163.85㎡,489000.0,부산광역시 금정구 부곡동,에스케이아파트 건물 163.85㎡,35.2376380106209,129.096413857004
정동만,배우자,건물,아파트,부산광역시 기장군 기장읍 동부리 부산기장포스코더샾건물 84.90㎡,202000.0,부산광역시 기장군 기장읍 동,부리 부산기장포스코더샾건물 84.90㎡,,
고연림,배우자,건물,아파트,부산광역시 남구 대연동 부산대연동푸르지오 건물 29.24㎡,160000.0,부산광역시 남구 대연동 부산대연동,푸르지오 건물 29.24㎡,35.1378939446187,129.09146973801
노우진,모,건물,아파트,부산광역시 남구 문현동 국제금융시티문현베스티움 건물59.99㎡,350000.0,부산광역시 남구 문현동,국제금융시티문현베스티움 건물59.99㎡,35.1433269924834,129.072124227665
김희곤,본인,건물,아파트,부산광역시 동래구 온천동 럭키아파트 건물 132.50㎡,1024000.0,부산광역시 동래구 온천동,럭키아파트 건물 132.50㎡,35.2118823526351,129.066706270938
이헌승,본인,건물,아파트,부산광역시 부산진구 개금동 개금역스마트더블유 건물49.92㎡ 중 9.99㎡,26400.0,부산광역시 부산진구 개금동,개금역스마트더블유 건물49.92㎡ 중 9.99㎡,35.1606615344224,129.017916186161
이헌승,본인,건물,아파트,부산광역시 부산진구 개금동 우성아파트 건물 127.22㎡ 중25.44㎡,53600.0,부산광역시 부산진구 개금동,우성아파트 건물 127.22㎡ 중25.44㎡,35.1606615344224,129.017916186161
전재수,부,건물,아파트,부산광역시 북구 만덕동 금정산엘에이치뉴웰시티 건물74.85㎡,300000.0,부산광역시 북구 만덕동,금정산엘에이치뉴웰시티 건물74.85㎡,35.2145376863012,129.038728928443
전재수,부,건물,아파트,부산광역시 북구 만덕동 금정산엘에이치뉴웰시티 건물84.95㎡,332000.0,부산광역시 북구 만덕동,금정산엘에이치뉴웰시티 건물84.95㎡,35.2145376863012,129.038728928443
김도읍,본인,건물,아파트,부산광역시 북구 화명동 대림쌍용강변타운 건물 84.92㎡,347000.0,부산광역시 북구 화명동,대림쌍용강변타운 건물 84.92㎡,35.2357636793339,129.013861621487
장제원,배우자,건물,아파트,부산광역시 사상구 주례동 엘지신주례아파트 건물134.94㎡,293000.0,부산광역시 사상구 주례동,엘지신주례아파트 건물134.94㎡,35.1521705842909,129.006097664426
최인호,본인,건물,아파트,부산광역시 사하구 하단동 가락타운2단지아파트 건물138.56㎡,319000.0,부산광역시 사하구 하단동,가락타운2단지아파트 건물138.56㎡,35.1148094646082,128.952594462617
전봉민,본인,건물,아파트,부산광역시 수영구 망미동 더삽파크리치 건물 179.49㎡,735000.0,부산광역시 수영구 망미동,더삽파크리치 건물 179.49㎡,35.1742365026598,129.101004990512
이주환,본인,건물,아파트,부산광역시 연제구 거제동 월드마크아시아드 건물160.63㎡,995000.0,부산광역시 연제구 거제동,월드마크아시아드 건물160.63㎡,35.1892144284113,129.071677580761
황보승희,본인,건물,아파트,부산광역시 영도구 영선동4가 영선동반도보라아파트 건물134.82㎡ (건물 10.00㎡ 감소),320000.0,부산광역시 영도구 영선동4가 영선동,반도보라아파트 건물134.82㎡ (건물 10.00㎡ 감소),35.0850072102619,129.039941410292
김미애,본인,건물,아파트,부산광역시 해운대구 반여동 아시아선수촌아파트 건물118.73㎡,740000.0,부산광역시 해운대구 반여동,아시아선수촌아파트 건물118.73㎡,35.2061309543907,129.130232464088
안철수,모,건물,아파트,부산광역시 해운대구 우동 해운대자이 1단지 건물120.36㎡,1205000.0,부산광역시 해운대구 우동,해운대자이 1단지 건물120.36㎡,35.1727271517264,129.148399576019
서병수,본인,건물,아파트,부산광역시 해운대구 중동 해운대 힐스테이트위브 건물153.57㎡ 중 76.78㎡,546000.0,부산광역시 해운대구 중동,해운대 힐스테이트위브 건물153.57㎡ 중 76.78㎡,35.1589578525344,129.1782523858
서병수,배우자,건물,아파트,부산광역시 해운대구 중동 해운대 힐스테이트위브 건물153.57㎡ 중 76.78㎡,546000.0,부산광역시 해운대구 중동,해운대 힐스테이트위브 건물153.57㎡ 중 76.78㎡,35.1589578525344,129.1782523858
서병수,본인,건물,아파트,부산광역시 해운대구 중동 해운대중동두산위브 건물111.00㎡ 중 22.20㎡,103999.0,부산광역시 해운대구 중동 해운대중동,두산위브 건물111.00㎡ 중 22.20㎡,35.1589578525344,129.1782523858
서범수,본인,건물,아파트,부산광역시 해운대구광역시 좌동 대림1차아파트 건물164.84㎡,559000.0,부산광역시 해운대구광역시 좌동,대림1차아파트 건물164.84㎡,,
